I_D,FLAG_TSUNAMI,YEAR,MONTH,DAY,EQ_PRIMARY,COUNTRY,iso-alpha2,LOCATION_NAME,LATITUDE,LONGITUDE,REGION_CODE,TOTAL_DEATHS,TOTAL_MISSING,TOTAL_INJURIES,TOTAL_DAMAGE_MILLIONS_DOLLARS,TOTAL_HOUSES_DESTROYED,TOTAL_HOUSES_DAMAGED
5551,No,2000,1,3,5,INDIA,IN,INDIA-BANGLADESH BORDER:  MAHESHKHALI,22.132,92.771,60,,,,,,100
5552,No,2000,1,11,5,CHINA,CN,CHINA:  LIAONING PROVINCE,40.498,122.994,30,,,30,,3600,8800,
5553,No,2000,1,14,6,CHINA,CN,CHINA:  YUNNAN PROVINCE:  YAOAN COUNTY,25.607,101.063,30,7,,2528,73.5,41000,,
5554,No,2000,2,2,5,IRAN,IR,"IRAN:  BARDASKAN, KASHMAR",35.288,58.218,140,1,,15,,100,300,
5555,No,2000,2,7,4,SOUTH AFRICA,ZA,SOUTH AFRICA; SWAZILAND:  MBABANE-MANZINI,-26.288,30.888,10,,,1,,,,
5556,No,2000,3,28,7,JAPAN,JP,JAPAN:  VOLCANO ISLANDS,22.338,143.73,30,,,,,,,
7301,Yes,2000,4,5,5,GREECE,GR,GREECE:  CRETE,34.22,25.69,130,,,,,,,
5557,Yes,2000,5,4,7,INDONESIA,ID,"INDONESIA:  SULAWESI:  LUWUK, BANGGAI, PELENG,",-1.105,123.573,170,46,,264,30,10000,,
5558,No,2000,5,7,4,TURKEY,TR,"TURKEY:  DOGANYOL, PUTURGE",38.164,38.777,140,,,1,,,200,
5559,No,2000,5,17,5,TAIWAN,TW,TAIWAN:  TAI-CHUNG COUNTY,24.223,121.058,30,3,,13,,,,
5560,No,2000,6,4,8,INDONESIA,ID,"INDONESIA:  SUMATRA:  BENGKULU, ENGGANO",-4.721,102.087,60,103,,2174,6,,,
5561,No,2000,6,6,6,TURKEY,TR,"TURKEY:  CERKES, CUBUK, ORTA",40.693,32.992,140,2,,80,,,4600,
5562,No,2000,6,7,6,CHINA,CN,CHINA:  YUNNAN PROVINCE:  LIUKU; MYANMAR,26.856,97.238,30,,,,,,,
5563,No,2000,6,7,7,INDONESIA,ID,INDONESIA:  SOUTHERN SUMATERA:  LAHAT,-4.612,101.905,60,1,,,,,600,
5564,No,2000,6,10,6,TAIWAN,TW,TAIWAN:  NAN-TOU,23.843,121.225,30,2,,36,,,,
8209,No,2000,6,17,6,ICELAND,IS,"ICELAND:  VESTMANNAEYJAR, HELLA",63.966,-20.487,120,,,1,20,11,19,
5565,Yes,2000,6,18,8,AUSTRALIA,AU,"AUSTRALIA:  S, COCOS ISLANDS",-13.802,97.453,60,,,,,,,
5566,No,2000,6,21,6,ICELAND,IS,"ICELAND:  GRIMSNES, SELFOSS, EYRARBAKKI, STOKKSEYRI",63.98,-20.758,120,,,,12,12,,
5568,Yes,2000,7,1,6,JAPAN,JP,JAPAN:  NEAR S COAST HONSHU:  KOZU-SHIMA,34.221,139.131,30,1,,,,,,
5569,No,2000,7,6,5,NICARAGUA,NI,NICARAGUA:  MASAYA,11.884,-85.988,100,7,,42,,357,1130,
5570,No,2000,7,12,5,INDONESIA,ID,"INDONESIA: JAWA:BANDUNG,CIBADAK,CIMANDIRI,KADUDAMPIT",-6.675,106.845,60,,,6,,,225,
5571,Yes,2000,7,15,6,JAPAN,JP,JAPAN:  NEAR S COAST HONSHU:  NII-JIMA,34.319,139.26,30,,,10,,,20,
5572,No,2000,7,16,6,PHILIPPINES,PH,"PHILIPPINES:  BASCO, MOUNT IRADA, BATAN ISLANDS",20.253,122.043,170,,,6,,,,
7803,Yes,2000,7,30,6,JAPAN,JP,JAPAN:  HONSHU:  S,33.901,139.376,30,,,1,,,,
5574,No,2000,8,4,7,RUSSIA,RU,"RUSSIA:  SAKHALIN ISLAND, UGLEGORSK, MAKAROV",48.786,142.246,50,,,8,0.92,,1390,
5575,No,2000,8,21,4,CHINA,CN,CHINA:  YUNNAN PROVINCE:  WUDING,25.826,102.194,30,1,,406,43,,,
5576,No,2000,9,3,5,USA,US,CALIFORNIA:  NAPA,38.379,-122.413,150,,,41,50,,,
5577,No,2000,10,2,6,TANZANIA,TZ,"TANZANIA:  NKANSI, RUKWA",-7.977,30.709,10,,,6,,7,150,
5578,No,2000,10,6,7,JAPAN,JP,"JAPAN:  HONSHU:  W:  OKAYAMA, TOTTORI",35.456,133.134,30,,,130,150,104,2230,
5579,No,2000,10,30,5,AFGHANISTAN,AF,AFGHANISTAN-TAJIKISTAN:  RAKHOR,37.542,69.582,40,,,,,,800,
5580,No,2000,11,8,6,PANAMA,PA,PANAMA-COLOMBIA:  JURADO,7.042,-77.829,100,,,2,,,86,
5581,Yes,2000,11,16,8,PAPUA NEW GUINEA,PG,"PAPUA NEW GUINEA:  NEW IRELAND, DUKE OF YORK",-4.001,152.327,170,2,,,,,,
5582,No,2000,11,16,8,PAPUA NEW GUINEA,PG,"PAPUA NEW GUINEA:  NEW IRELAND, NEW BRITAIN",-5.233,153.102,170,,,,,,,
5583,No,2000,11,17,8,PAPUA NEW GUINEA,PG,PAPUA NEW GUINEA:  NEW BRITAIN,-5.496,151.781,170,,,,,,,
5584,No,2000,11,25,7,AZERBAIJAN,AZ,AZERBAIJAN:  BAKU,40.245,49.946,40,31,,430,,,,
5585,No,2000,12,6,7,TURKMENISTAN,TM,TURKMENISTAN:  NEBITDAG-TURKMENBASHI,39.566,54.799,40,11,,,,,,
5586,No,2000,12,15,6,TURKEY,TR,TURKEY:  AFYON-BOLVADIN,38.457,31.351,140,6,,41,,,,
8952,No,2001,1,1,8,PHILIPPINES,PH,PHILIPPINES:  MINDANAO,6.898,126.579,170,,,,,,,
5587,Yes,2001,1,13,8,EL SALVADOR,SV,EL SALVADOR:  DAMAGE & INJURIES IN EVERY DEPT.,13.049,-88.66,100,844,,4723,753,108226,169632,
5589,No,2001,1,26,8,INDIA,IN,"INDIA:  GUJARAT:  BHUJ, AHMADABAD, RAJOKOT; PAKISTAN",23.419,70.232,60,20005,,166836,2623,339000,,
5592,No,2001,2,13,7,EL SALVADOR,SV,EL SALVADOR: SAN JUAN TEPEZONTES-SAN VICENTE-COJUTEP,13.671,-88.938,100,315,,3399,348.5,41302,15706,
5593,No,2001,2,23,6,CHINA,CN,"CHINA:  SICHUAN PROVINCE:  KANGDING, YAJIANG",29.513,101.129,30,3,,109,,60000,,
5595,No,2001,2,28,7,USA,US,"WASHINGTON:  OLYMPIA, SEATTLE, TACOMA",47.149,-122.727,150,1,,400,2000,,,
5596,No,2001,3,24,7,JAPAN,JP,"JAPAN:  HIROSHIMA, OKAYAMA, HONSHU, KAGAMA",34.083,132.526,30,2,,161,500,,3700,
5597,No,2001,5,8,6,EL SALVADOR,SV,EL SALVADOR:  CONCHAGUA,13.605,-88.795,100,1,,,,84,70,
5598,No,2001,5,23,5,CHINA,CN,CHINA:  YUNNAN:  NINGLANG; SICHUAN:  YANYUAN,27.689,101.003,30,2,,605,36,,,
5599,No,2001,6,1,5,AFGHANISTAN,AF,AFGHANISTAN:  HINDU KUSH:  PARVAN,35.169,69.389,40,4,,20,,,,
5601,Yes,2001,6,23,8,PERU,PE,"PERU:  AREQUIPA, MOQUEGUA, TACNA, AYACUCHO",-16.265,-73.641,160,103,138,2713,200,25399,,
5602,No,2001,6,25,5,TURKEY,TR,TURKEY:  OSMANIYE,37.238,36.206,140,,,130,,,66,
5603,No,2001,7,5,6,PERU,PE,"PERU:  CARAVELI, CHALA, ARICA, IQUIQUE, PARINACOTA",-16.086,-73.987,160,,,,,300,,
5604,No,2001,7,7,7,PERU,PE,"PERU:  AREQUIPA, ARICA",-17.543,-72.077,160,1,,30,,200,,
5605,No,2001,7,14,4,CHINA,CN,CHINA:  YUNNAN PROVINCE:  JIANGCHUAN,24.455,102.66,30,,,2,,150,,
5606,No,2001,7,26,6,GREECE,GR,GREECE:  SKYROS,39.059,24.244,130,,,,,,100,
5607,No,2001,8,9,6,PERU,PE,PERU:  ANTABAMA,-14.258,-72.683,160,4,,15,,,,
5608,No,2001,9,9,4,USA,US,CALIFORNIA:  LOS ANGELES,34.059,-118.387,150,,,,,,,
10203,Yes,2001,10,12,6,CANADA,CA,CANADA:  QUEEN CHARLOTTE ISLANDS,52.63,-132.2,150,,,,,,,
5609,No,2001,10,12,7,USA TERRITORY,US,GUAM,12.686,144.98,170,,,1,,,,
5610,No,2001,10,19,7,INDONESIA,ID,INDONESIA:  BANDA SEA,-4.102,123.907,170,,,,,,,
5611,No,2001,10,27,5,CHINA,CN,CHINA:  YUNNAN PROVINCE:  YONGSHENG,26.316,100.648,30,1,,220,,3400,,
5612,No,2001,11,14,8,CHINA,CN,CHINA:  QINGHAI PROVINCE:  XIDATAN,35.946,90.541,40,,,,,,,
6613,Yes,2001,12,18,7,TAIWAN,TW,TAIWAN,23.954,122.734,30,,,,,,,
5613,No,2001,12,19,4,BANGLADESH,BD,BANGLADESH:  DHAKA,23.632,90.376,60,,,100,,,,
5614,Yes,2002,1,2,7,VANUATU,VU,"VANUATU ISLANDS:  EFATE, PORT VILA",-17.6,167.856,170,,,,,,,
5615,No,2002,1,9,5,TAJIKISTAN,TJ,TAJIKISTAN:  ROGHUN,38.673,69.902,40,3,,50,,,209,
5616,No,2002,1,10,6,PAPUA NEW GUINEA,PG,PAPUA NEW GUINEA:  AITAPE,-3.212,142.427,170,1,,,,200,,
5617,No,2002,1,14,5,CHILE,CL,"CHILE: NORTHERN: CUYA, HUARA, IQUIQUE, POZO ALMONTE",-19.384,-69.231,160,,,,,,,
5618,No,2002,1,17,5,RWANDA,RW,RWANDA:  GISENYI,-1.684,29.077,10,1001,,400,,307,,
5619,No,2002,1,30,6,MEXICO,MX,"MEXICO:  VERACRUZ:  SAN ANDRES TUXTLA, TUXTEPEC",18.194,-95.908,150,,,,,,,
5620,No,2002,2,3,6,TURKEY,TR,TURKEY:  AFYON,38.573,31.271,140,44,,318,,,622,
5621,No,2002,2,3,5,TAJIKISTAN,TJ,TAJIKISTAN:  ROGHUN,38.773,69.924,40,,,,,,,
5622,No,2002,2,17,5,IRAN,IR,IRAN:  BAGHAN,28.093,51.755,140,1,,30,,,,
5623,No,2002,2,22,5,MEXICO,MX,"MEXICO:  MEXICALI, BAJA CALIFORNIA",32.319,-115.322,150,,,,,,,
5624,No,2002,3,3,7,AFGHANISTAN,AF,"AFGHANISTAN:  HINDU KUSH:  SAMANGHAN, KABUL, RUSTAQ",36.502,70.482,40,166,,,,300,400,
5625,Yes,2002,3,5,7,PHILIPPINES,PH,PHILIPPINES:  MINDANAO,6.033,124.249,170,15,,100,1.714,,800,
5626,No,2002,3,25,6,AFGHANISTAN,AF,"AFGHANISTAN:  HINDU KUSH:  BAGHLAN, NAHRIN",36.062,69.315,40,1000,,200,,1500,,
6821,Yes,2002,3,26,6,JAPAN,JP,JAPAN:  RYUKYU ISLANDS,23.346,124.09,30,,,,,,,
5627,Yes,2002,3,31,7,TAIWAN,TW,TAIWAN:  TAIPEI,24.279,122.179,30,5,,200,,100,,
5628,No,2002,4,1,6,CHILE,CL,"CHILE:  CENTRAL:  COQUIMBO, LA SERENA, OVALLE",-29.67,-71.384,160,,,,,,,
5629,No,2002,4,12,6,TAJIKISTAN,TJ,TAJIKISTAN; AFGHANISTAN: DO ABI-NAHRIN,39.959,69.417,40,50,,150,,160,250,
5630,No,2002,4,18,6,CHILE,CL,"CHILE:  COPIAPO, TALTAL",-27.535,-70.586,160,,,19,,34,575,
5631,No,2002,4,20,5,USA,US,"NEW YORK:  CLINTON, ESSEX, AU SABLE FORKS",44.513,-73.699,150,,,,,,,
5632,No,2002,4,24,6,SERBIA,RS,BALKANS NW:  KOSOVO; MACEDONIA:  N,42.436,21.466,130,1,,60,,,,
5633,No,2002,4,24,5,IRAN,IR,IRAN:  WESTERN:  KERMANSHAH,34.642,47.4,140,2,,56,,,,
5634,No,2002,4,25,4,GEORGIA,GE,GEORGIA:  TBILISI,41.765,44.96,40,5,,52,,,2400,
5635,No,2002,4,26,7,USA TERRITORY,US,GUAM,13.088,144.619,170,,,5,,,,
5636,No,2002,5,18,5,TANZANIA,TZ,TANZANIA:  BUNDA,-2.907,33.733,10,2,,,,690,700,
5637,No,2002,5,28,6,ARGENTINA,AR,"ARGENTINA:  AMINGA, ANILLACO, AGUA BLANCA, CHUQUIS",-28.937,-66.797,160,,,27,,40,,
5638,No,2002,6,20,4,BANGLADESH,BD,"BANGLADESH:  RANGPUR, THAKURGAON, ALMANAGAR",25.842,88.932,60,,,55,,,,
5639,No,2002,6,22,6,IRAN,IR,IRAN:  AB GARM-ABHAR-AVAJ-SHIRIN SU,35.626,49.047,140,261,,1300,300,4,,
5573,No,2002,7,22,5,GERMANY,DE,"GERMANY:  AACHEN, COLOGNE, SPANGDAHLEM",50.889,6.103,120,,,,,,,
5641,No,2002,7,31,6,PANAMA,PA,"PANAMA:  BARU, ALANJE, DAVID; COSTA RICA:  LAUREL",7.929,-82.793,100,,,11,,,,
5642,No,2002,8,8,5,CHINA,CN,CHINA:  SICHUAN PROVINCE:  RULONG,30.916,99.927,30,,,,,8,,
5643,No,2002,8,14,6,USA TERRITORY,US,NORTHERN MARIANA ISLANDS:  SAIPAN,14.101,146.199,170,,,,,,,
5644,No,2002,8,15,6,INDONESIA,ID,INDONESIA:   SULAWESI:  TOJO,-1.196,121.333,170,48,,,,,200,
8953,No,2002,8,19,7,FIJI,FJ,FIJI ISLANDS,-21.696,-179.513,170,,,,,,,
8954,No,2002,8,19,7,FIJI,FJ,FIJI ISLANDS,-23.884,178.495,170,,,,,,,
5645,No,2002,8,24,4,EGYPT,EG,EGYPT:  CAIRO,30.2,31.41,15,,,,,,44,
5646,No,2002,9,2,5,IRAN,IR,"IRAN: KAK, RAZAN, SIZAN",35.701,48.838,140,,,,,,,
5647,No,2002,9,5,6,KYRGYZSTAN,KG,KYRGYZSTAN,39.77,72.007,40,,,,,,,
5648,No,2002,9,6,6,ITALY,IT,ITALY:  SICILY:  PALERMO,38.381,13.701,130,2,,20,500,,,
5649,Yes,2002,9,8,7,PAPUA NEW GUINEA,PG,"PAPUA NEW GUINEA:  KAIRIRU IS, MUSCHU IS, WEWAK",-3.26,142.94,170,4,,70,,,873,
5650,Yes,2002,9,13,6,INDIA,IN,"INDIA:  ANDAMAN ISLANDS:  RONGAT, DIGLIPUR,ARIEL BAY",13.036,93.068,60,2,,,,40,,
5651,No,2002,9,20,6,INDONESIA,ID,INDONESIA:  NEW GUINEA:  IRIAN JAYA:  RANSIKI,-1.68,134.234,170,,,,,,31,
5652,No,2002,9,22,5,UK,GB,"UNITED KINGDOM:  MANSFIELD, DUDLEY",52.52,-2.15,120,,,1,,,,
5653,No,2002,9,25,5,MEXICO,MX,MEXICO:  ACAPULCO,16.87,-100.113,150,,,2,,,,
5654,No,2002,9,25,5,IRAN,IR,IRAN:  MASJED-E SOLEYMAN,31.995,49.329,140,,,5,,,,
5655,No,2002,9,30,4,FRANCE,FR,"FRANCE:  HENNEBONT, LANGUIDIC, LORIENT, TREMOREL",47.832,-3.207,120,,,,,,,
5656,Yes,2002,10,10,7,INDONESIA,ID,"INDONESIA: NEW GUINEA: MANOKWARI, ORANSBARI, RANSIKI",-1.757,134.297,170,8,,632,,1000,900,
5657,No,2002,10,23,6,USA,US,"ALASKA:  CANTWELL, DENALI NATL PARK",63.514,-147.912,150,,,,,,,
5658,No,2002,10,24,6,CONGO,CD,"CONGO: GOMA, LWIRO, BUKAVU; RWANDA:  MUGERA, KIGALI",-1.884,29.004,10,2,,,,,,
5659,No,2002,10,29,4,ITALY,IT,ITALY:  SICILY:  SANTA VENERINA,37.67,15.267,130,,,9,,,,
5660,No,2002,10,31,6,ITALY,IT,"ITALY:  SAN GUILIANO DI PUGLIA, CAMPOBASSO",41.789,14.872,130,29,,135,796,,,
5661,No,2002,11,1,5,PAKISTAN,PK,PAKISTAN:  GILGIT,35.517,74.654,60,11,,40,,,1000,
5662,No,2002,11,2,7,INDONESIA,ID,INDONESIA:  SUMATERA:  SIMEULUE,2.824,96.085,60,3,,65,,,994,
5663,No,2002,11,3,8,USA,US,"ALASKA:  SLANA, MENTASTA LAKE, FAIRBANKS",63.517,-147.444,150,,,1,56,,,
5664,No,2002,11,20,6,PAKISTAN,PK,"PAKISTAN:  DASHKIN, DOIAN, MUSHKIN",35.414,74.515,60,19,,40,,100,1256,
5665,No,2002,11,27,6,VANUATU,VU,VANUATU ISLANDS: MERE LAVA ISLAND,-14.49,167.827,170,,,3,,,100,
5666,No,2002,12,2,6,GREECE,GR,"GREECE:  MEGALOPOLIS, VARTHOLOMION",37.747,21.087,130,,,17,,8,100,
5667,No,2002,12,14,5,CHINA,CN,CHINA:  GANSU PROVINCE:  YUMNE,39.736,97.443,30,2,,,,13380,,
5668,No,2002,12,24,5,IRAN,IR,IRAN:  KERMANSHAH,34.594,47.454,140,,,15,,3000,,
5669,No,2002,12,25,6,CHINA,CN,CHINA:  XINJIANG:  WUQIA,39.57,75.254,40,,,,,,,
5670,No,2002,12,25,5,AFGHANISTAN,AF,AFGHANISTAN:  JALALABAD,35.704,69.868,40,,,,,,,
5671,No,2003,1,11,5,IRAN,IR,"IRAN:  KAZERUN, NURABAD",29.59,51.474,140,,,,,650,1350,
5672,Yes,2003,1,20,7,SOLOMON ISLANDS,SB,"SOLOMON ISLANDS:  HONIARA, SAN CRISTOBAL",-10.491,160.77,170,,,,,,,
5673,Yes,2003,1,22,7,MEXICO,MX,"MEXICO:  VILLA DE ALVAREZ, COLIMA, TECOMAN, JALISCO",18.77,-104.104,150,29,,300,,2005,6615,
5674,No,2003,1,23,5,INDONESIA,ID,INDONESIA:  SUMBAWA ISLAND:  DOMPU,-8.807,118.524,60,,,2,,,500,
5675,No,2003,1,26,5,ITALY,IT,"ITALY:  SPINELLO, SANTA SOFIA, BAGNO DI ROMAGNA",43.883,11.96,130,,,,,,,
5676,No,2003,1,27,6,TURKEY,TR,"TURKEY:  SAGLAMTAS, PULUMUR",39.5,39.878,140,1,,,,,,
5685,No,2003,2,13,5,CHINA,CN,CHINA:  N. XINJIANG:  URUMQI,43.897,85.923,40,,,,,,,
5700,No,2003,2,15,6,PHILIPPINES,PH,PHILIPPINES: LUZON:  DIMASALANG,12.171,123.921,170,,,,,,,
5701,No,2003,2,15,6,PHILIPPINES,PH,"PHILIPPINES: MASBATE, DIMASALANG",12.168,124.079,170,,,,,,,
5680,No,2003,2,22,5,USA,US,CALIFORNIA:  BIG BEAR CITY,34.31,-116.848,150,,,,,,,
5681,No,2003,2,22,5,FRANCE,FR,"FRANCE:  BACCARAT, COLMAR, THANN; GERMANY:  EDIGEN",48.342,6.57,120,,,,,,,
5682,No,2003,2,24,6,CHINA,CN,CHINA:  S. XINJIANG:  BACHU,39.61,77.23,40,261,,4000,,71000,,
5683,No,2003,2,25,5,CHINA,CN,CHINA:  S. XINJIANG:  BACHU,39.483,77.393,40,5,,,,,,
5684,No,2003,3,21,4,INDONESIA,ID,"INDONESIA:  JAVA:  CARACAS, CILIMUS, SAMPORA",-6.983,108.468,60,,,,,,800,
5686,No,2003,3,22,4,GERMANY,DE,GERMANY:  ALBSTADT,48.21,9,120,,,,,,,
5702,No,2003,3,25,6,INDONESIA,ID,INDONESIA:  FLORES:  REO,-8.294,120.743,60,4,,20,,,,
5689,No,2003,3,25,5,BHUTAN,BT,BHUTAN:  PHUENTSHOLING,27.264,89.331,60,,,,,,,
5690,No,2003,4,10,5,TURKEY,TR,"TURKEY:  IZMIR, SEFERIHISAR",38.221,26.958,140,,,90,,,,
5691,No,2003,4,17,6,CHINA,CN,CHINA:  QINGHAI PROVINCE:  DELINGHA,37.529,96.476,30,,,,,45,,
5703,No,2003,4,29,4,USA,US,"ALABAMA:  FORT PAYNE,GAYLESVILLE,VALLEY HEAD",34.494,-85.629,150,,,,,,,
5692,No,2003,5,1,6,TURKEY,TR,TURKEY:  BINGOL,39.007,40.464,140,177,,521,,718,2593,
5693,No,2003,5,4,5,CHINA,CN,CHINA:  S. XINJIANG:  YOPURGA,39.43,77.219,40,1,,3,,1600,,
5694,Yes,2003,5,21,6,ALGERIA,DZ,"ALGERIA:  ALGIERS, BOUMERDES, REGHIA, THENIA",36.964,3.634,15,2266,,10261,5000,43000,,
5695,No,2003,5,26,7,JAPAN,JP,"JAPAN:  HONSHU:  IWATE, MIYAGI, YAMAGATA, AKITA",38.849,141.568,30,,,143,233,,720,
5696,No,2003,5,26,7,INDONESIA,ID,"INDONESIA:  MOROTAI, BEREBERE, DARUBA",2.354,128.855,170,1,,7,,28,20,
5697,Yes,2003,5,27,6,ALGERIA,DZ,"ALGERIA:  ALGIERS, BOUMERDES, REGHAIA",36.939,3.578,15,9,,200,,,,
5698,No,2003,6,6,4,USA,US,KENTUCKY:  BARDWELL,36.87,-88.98,150,,,,,,,
5699,No,2003,6,9,5,GREECE,GR,"GREECE:  GONNOI, LARISA",39.893,22.309,130,,,,,,50,
5688,No,2003,6,20,7,CHILE,CL,"CHILE:  OVALLE, COQUIMBO; ARGENTINA:  SAN JUAN",-30.608,-71.637,160,,,1,,,,
5704,No,2003,7,3,5,IRAN,IR,"IRAN:  NORTHEASTERN: YAKHAK, BASHIRABAD, BUTEHGAZ",35.476,60.784,140,,,,,,90,
5705,No,2003,7,10,6,IRAN,IR,IRAN:  SOUTHERN: GAJJIABAD,28.355,54.169,140,1,,25,,3500,,
5706,No,2003,7,15,7,INDIAN OCEAN,IN,INDIAN OCEAN:  FELT IN MALDIVES,-2.598,68.382,60,,,,,,,
5707,No,2003,7,21,6,CHINA,CN,CHINA:  YUNNAN PROVINCE,25.975,101.29,30,16,,584,75,264878,,
5708,No,2003,7,25,5,JAPAN,JP,"JAPAN:  HONSHU:  MIYAGI, IWATE",38.432,141.003,30,,,569,411,,1025,
5709,No,2003,7,26,4,TURKEY,TR,TURKEY:  WESTERN:  BULDAN,38.111,28.887,140,,,,,,48,
5710,No,2003,7,26,5,TURKEY,TR,TURKEY:  WESTERN:  BULDAN,38.019,28.927,140,,,10,,1,,
5711,No,2003,7,26,6,BANGLADESH,BD,BANGLADESH:  RANGAMATI,22.854,92.306,60,2,,25,,500,,
5712,No,2003,8,4,7,ANTARCTICA,AQ,SCOTIA SEA:  SOUTH ORKNEY ISLANDS: LAURIE IS,-60.532,-43.411,20,,,,,,,
5713,No,2003,8,11,6,INDONESIA,ID,INDONESIA:  HALMAHERA:  WASILE,1.142,128.152,170,,,,,,200,
5714,No,2003,8,13,5,PANAMA,PA,"PANAMA:  COLON, PANAMA CITY",9.355,-79.941,100,,,,,,,
5715,No,2003,8,14,6,GREECE,GR,"GREECE:  LEFKADA, PREVEZA",39.16,20.605,130,,,50,,,,
5716,No,2003,8,16,5,CHINA,CN,"CHINA:  NEI MONGOL:  LINDONG, TIANSHAN",43.77,119.643,30,4,,1000,,7900,,
5717,No,2003,8,18,5,CHINA,CN,"CHINA:  TIBET (XIZANG PROVINCE): BOMI,MEDOG,NYINGCHI",29.573,95.605,40,,,,,,,
5719,Yes,2003,8,21,7,NEW ZEALAND,NZ,"NEW ZEALAND:  DUNEDIN,INVERCARGILL,TE ANAU,FIORDLAND",-45.104,167.144,170,,,,,,,
5720,No,2003,9,14,5,ITALY,IT,"ITALY:  LOIANO, MONGHIDORO, MONZUNO",44.329,11.45,130,,,,,,10,
5721,No,2003,9,20,6,JAPAN,JP,JAPAN:  HONSHU:  TOKYO,34.998,140.172,30,,,7,,,,
5722,No,2003,9,21,6,MYANMAR (BURMA),MM,MYANMAR (BURMA):  TAUNGDWINGYI; THAILAND:  BANGKOK,19.917,95.672,60,,,,,,,
5723,No,2003,9,22,6,DOMINICAN REPUBLIC,DO,"DOMINICAN REPUBLIC:  PUERTO PLATA, SANTIAGO",19.777,-70.673,90,3,,15,,,,
5724,Yes,2003,9,25,8,JAPAN,JP,JAPAN:  HOKKAIDO,41.815,143.91,30,2,,849,90,,,
5725,No,2003,9,27,7,RUSSIA,RU,"RUSSIA:  KOSH-AGACH, UST'-ULAGAN, ONGUDAI, SHEBALINO",50.038,87.813,40,3,,5,10.6,300,,
5726,No,2003,9,29,4,RUSSIA,RU,RUSSIA:  KOSH-AGACH,50,87.89,40,,,,,,,
5727,No,2003,9,29,5,NEW ZEALAND,NZ,NEW ZEALAND:  CHRISTCHURCH,-43.34,173.04,170,,,,,,,
5728,No,2003,10,1,6,RUSSIA,RU,"RUSSIA:  KOSH-AGACH, BARNAUL, GORNO-ALTAYSK",50.211,87.721,40,,,,,,,
5729,No,2003,10,15,5,JAPAN,JP,JAPAN:  NEAR S COAST HONSHU:  ATSUGI,35.457,139.871,30,,,,,,,
5730,No,2003,10,16,4,DOMINICAN REPUBLIC,DO,"DOMINICAN REPUBLIC:   MOCA, SANTIAGO",19.761,-70.693,90,,,,,,,
5731,No,2003,10,16,5,CHINA,CN,CHINA:  YUNNAN PROVINCE:  DAYAO,25.954,101.254,30,3,,32,,12000,,
5732,No,2003,10,25,5,CHINA,CN,"CHINA:  GANSU PROVINCE:  MINLE, SHANDAN",38.4,100.951,30,9,,43,40,10000,,
6610,Yes,2003,10,31,7,JAPAN,JP,JAPAN:  EAST COAST HONSHU,37.812,142.619,30,,,,,,,
5733,No,2003,11,13,5,CHINA,CN,"CHINA:  GANSU PROVINCE:  JONE, LINTAN, MINXIAN",34.712,103.834,30,1,,30,,10,,
5734,No,2003,11,14,5,CHINA,CN,"CHINA:  YUNNAN PROVINCE:  LUDIAN, ZHAOTONG",27.372,103.971,30,4,,65,,600,,
5735,Yes,2003,11,17,7,USA,US,ALASKA:  ALEUTIAN ISLANDS:  RAT ISLANDS,51.146,178.65,150,,,,,,,
5736,No,2003,11,18,6,PHILIPPINES,PH,PHILIPPINES:  SAMAR:  CAN-AVID,12.025,125.416,170,1,,21,,1,,
5737,No,2003,11,26,5,CHINA,CN,CHINA:  YUNNAN PROVINCE:  LUDIAN,27.283,103.753,30,,,4,,2000,,
5738,No,2003,12,1,6,CHINA,CN,CHINA:  XINJIANG:  ZHAOSU,42.905,80.515,40,11,,47,,769,,
5745,No,2003,12,5,5,INDONESIA,ID,"INDONESIA:  FLORES, RUTENG",-8.137,120.524,60,,,,,,,
5746,No,2003,12,10,7,TAIWAN,TW,"TAIWAN:  T'AI-TUNG, KAO-HSIUN",23.039,121.362,30,,,1,,,,
5747,No,2003,12,11,5,IRAN,IR,IRAN:  WESTERN:  MASJED-E- SOLEYMAN,31.953,49.209,140,,,5,,1,,
5748,No,2003,12,17,4,BULGARIA,BG,BULGARIA: POVADIYA,43.083,27.486,110,,,,,10,150,
5749,No,2003,12,22,6,USA,US,"CALIFORNIA:  PASO ROBLES,TEMPLETON,ATASCADERO",35.706,-121.102,150,2,,40,300,,,
5750,No,2003,12,25,6,PANAMA,PA,PANAMA-COSTA RICA:  PUERTO ARMUELLES,8.416,-82.824,100,2,,75,,,,
5751,No,2003,12,26,6,IRAN,IR,"IRAN:  SOUTHEASTERN:  BAM, BARAVAT",28.995,58.311,140,31000,,30000,32.7,,,
7404,Yes,2003,12,27,6,NEW CALEDONIA,NC,NEW CALEDONIA:  LOYALTY ISLANDS,-22.107,169.35,170,,,,,,,
5752,No,2004,1,1,6,INDONESIA,ID,"INDONESIA:  BALI, LOMBOK",-8.31,115.788,60,1,,29,12,6000,,
5753,No,2004,1,1,6,MEXICO,MX,"MEXICO:  GUERRERO, MEXICO CITY",17.488,-101.303,150,,,,,,,
5754,No,2004,1,10,2,SLOVAKIA,SK,SLOVAKIA:  SLOVENSKO L'UPCA,48.758,19.217,110,,,,,,,
5755,No,2004,1,10,4,ALGERIA,DZ,"ALGERIA:  NORTHERN:  ALGIERS, BOUMERDES",36.852,3.418,15,,,300,,,,
5756,No,2004,1,14,5,IRAN,IR,IRAN:  SOUTHERN:  FIRUZABAD,27.695,52.397,140,,,,,,,
6611,Yes,2004,1,28,7,INDONESIA,ID,INDONESIA:  SERAM,-3.12,127.4,170,,,,,,,
5757,No,2004,2,4,6,PANAMA,PA,PANAMA-COSTA RICA:  CHIRIQUI,8.358,-82.877,100,,,4,,,,
5758,No,2004,2,5,7,INDONESIA,ID,INDONESIA:  NABIRE,-3.615,135.538,170,37,,682,1,2678,,
5759,No,2004,2,7,7,INDONESIA,ID,INDONESIA:  NABIRE,-4.003,135.023,170,,,,,,,
5760,Yes,2004,2,11,5,JORDAN,JO,"JORDAN:  MA'IN; ISRAEL:  JERUSALEM, PETAH-TIQWA",31.675,35.551,140,,,4,,,,
5761,No,2004,2,14,5,PAKISTAN,PK,"PAKISTAN:  BALAKOT, BATGRAM, MANSEHRA",34.774,73.216,60,24,,40,,1420,5379,
5762,No,2004,2,16,5,INDONESIA,ID,INDONESIA:  SUMATRA:  PADANGPANJANG,-0.466,100.655,60,5,,7,,,100,
5763,No,2004,2,22,6,INDONESIA,ID,INDONESIA:  SUMATRA:  PESISIR SELATAN,-1.559,100.488,60,,,1,,,,
5764,No,2004,2,24,5,BURUNDI,BI,BURUNDI:  RUYAGA,-3.393,29.558,10,3,,,,24,,
5765,No,2004,2,24,6,MOROCCO,MA,"MOROCCO:  AL HOCEIMA, IMZOURENE, BENI ABDALLAH",35.142,-3.997,15,628,,926,400,2539,,
5766,No,2004,3,1,5,GREECE,GR,GREECE:  SOUTHERN:  KALAMATA,37.136,22.116,130,,,,,,,
5768,No,2004,3,24,5,CHINA,CN,"CHINA:  NEI MONGOL:  BAYAN UL HOT, ULIASTAI",45.382,118.256,30,,,100,74,38000,,
5767,No,2004,3,25,5,TURKEY,TR,TURKEY:  ERZURUM,39.93,40.812,140,10,,46,,45,,
5769,No,2004,3,28,5,TURKEY,TR,TURKEY:  ASKALE,39.847,40.874,140,,,12,,50,,
5771,No,2004,4,5,6,AFGHANISTAN,AF,"AFGHANISTAN:  HINDU KUSH:  KABUL, SAMANGAN; PAKISTAN",36.512,71.029,40,3,,5,,,,
5772,No,2004,4,9,5,INDONESIA,ID,INDONESIA:  SUMATRA:  PADANG,-1.549,100.54,60,,,,,,,
5774,No,2004,4,16,5,INDONESIA,ID,INDONESIA:  BALI,-8.669,114.65,60,,,,,,,
5775,No,2004,4,23,6,INDONESIA,ID,INDONESIA:  TIMOR: KUPANG,-9.362,122.839,60,,,,,,,
5776,No,2004,5,1,5,TAIWAN,TW,TAIWAN:  HUALIEN: TAROKO GORGE NATIONAL PARK,24.081,121.611,30,2,,1,,,,
5777,No,2004,5,3,6,CHILE,CL,CHILE: CANETE,-37.695,-73.406,160,,,,,,,
5778,No,2004,5,4,5,CHINA,CN,CHINA:  QINGHAI PROVINCE:  DELINGHA,37.506,96.758,30,,,,,,3100,
5779,No,2004,5,8,5,IRAN,IR,IRAN:  KAZERUN,29.881,51.474,140,,,,,4,6,
5780,No,2004,5,8,4,PAKISTAN,PK,PAKISTAN:  QUETTA,30.126,67.121,60,1,,30,,,,
5782,No,2004,5,19,4,PHILIPPINES,PH,PHILIPPINES:  BOHOL ISLAND:  TUBIGON,9.926,124.038,170,,,,,,,
5783,No,2004,5,28,6,IRAN,IR,"IRAN:  MAZANDARAN, QAZVIN, TEHRAN",36.29,51.61,140,35,,400,165,,,
5784,No,2004,5,30,5,RUSSIA,RU,"RUSSIA:  SAKHALIN, YUZHNO, SAKHALINSK",47.311,142.12,50,,,,,,46,
5785,No,2004,6,9,5,SAUDI ARABIA,SA,SAUDI ARABIA: WESTERN,27.836,36.905,140,,,,,,,
5786,No,2004,6,15,6,CHILE,CL,"CHILE: CARAHUE, IMPERIAL, TEMUCO",-38.854,-73.155,160,,,,,,,
5787,No,2004,7,1,5,TURKEY,TR,TURKEY:  DOGUBEYAZIT,39.766,43.979,140,18,,21,,,,
5789,No,2004,7,12,5,SLOVENIA,SI,"SLOVENIA: BOVEC, KOBARID",46.296,13.641,130,1,,5,,,,
5790,No,2004,7,14,4,AFGHANISTAN,AF,AFGHANISTAN: HERAT,34.89,61.852,40,,,,,,150,
5791,No,2004,7,18,5,NEW ZEALAND,NZ,"NEW ZEALAND:  NORTH ISLAND:  ROTORUA, TAURANGA",-38,176.51,170,1,,2,,,5,
5792,No,2004,7,18,5,AFGHANISTAN,AF,AFGHANISTAN: PAKTIA PROVINCE,33.426,69.524,40,2,,40,,,,
5793,No,2004,7,30,4,TURKEY,TR,TURKEY:  DOGUBEYAZIT,39.634,43.966,140,1,,5,,,,
5795,No,2004,8,4,6,TURKEY,TR,TURKEY:  BODRUM,36.833,27.815,140,,,15,,,,
5796,No,2004,8,10,5,CHINA,CN,CHINA:  YUNNAN PROVINCE:  LUDIAN,27.266,103.873,30,4,,600,50,18556,65601,
5797,No,2004,8,11,6,TURKEY,TR,"TURKEY:  ELAZIG, SIVRICE",38.377,39.261,140,1,,11,,,,
5798,Yes,2004,9,5,7,JAPAN,JP,JAPAN:  HONSHU:  W COAST: KYOTO,33.07,136.618,30,,,4,,,,
5799,Yes,2004,9,5,7,JAPAN,JP,"JAPAN:  HONSHU:  W COAST: KYOTO, WAKAYAMA, SAKAI",33.184,137.071,30,,,40,,,,
5800,No,2004,9,7,6,ARGENTINA,AR,ARGENTINA: CATAMARCA,-28.573,-65.84,160,1,,,,,,
5801,No,2004,9,7,5,CHINA,CN,CHINA:  GANSU PROVINCE,34.682,103.781,30,,,19,,600,,
5802,No,2004,9,21,5,POLAND,PL,"POLAND: SUWALKI; RUSSIA: KALININGRAD, SVETLOGORSK",54.841,19.912,120,,,3,,,,
5803,No,2004,9,28,6,USA,US,"CALIFORNIA:  CENTRAL: PARKFIELD, SAN MIGUEL",35.819,-120.364,150,,,,,,,
5825,No,2004,10,1,5,NICARAGUA,NI,"NICARAGUA:  CHINANDEGA, LEON",11.989,-86.52,100,,,,,,,
5804,No,2004,10,7,5,IRAN,IR,IRAN:  GOLESTAN,37.125,54.477,140,,,60,,,,
5805,No,2004,10,15,6,TAIWAN,TW,TAIWAN:  T'AO-YUAN,24.53,122.694,30,,,,,,,
5806,No,2004,10,18,4,CHINA,CN,CHINA:  YUNNAN PROVINCE:  BAOSHAN,25.073,99.169,30,,,12,,20000,,
5807,No,2004,10,23,6,JAPAN,JP,JAPAN:  HONSHU:  NIIGATA PREFECTURE,37.226,138.779,30,40,,3183,28000,6000,,
5808,No,2004,10,27,6,JAPAN,JP,JAPAN:  HONSHU:  NIIGATA PREFECTURE,37.284,138.885,30,,,5,,1,,
5826,No,2004,10,27,6,ROMANIA,RO,"ROMANIA:  BUCHAREST, BRAILA; BULGARIA:  NORTHERN",45.787,26.622,110,,,,,,,
7403,Yes,2004,11,2,6,CANADA,CA,CANADA:  VANCOUVER ISLAND,49.277,-128.772,150,,,,,,,
5827,No,2004,11,4,5,GREECE,GR,GREECE:  CRETE:  ANTIKYTHIRA,35.945,23.115,130,,,,,,,
5809,No,2004,11,8,5,JAPAN,JP,JAPAN:  HONSHU:  NIIGATA PREFECTURE,37.396,138.862,30,,,8,,,,
5810,Yes,2004,11,11,7,INDONESIA,ID,INDONESIA:  KEPULAUAN ALOR,-8.152,124.868,60,34,,400,,781,16712,
5811,No,2004,11,15,7,COLOMBIA,CO,"COLOMBIA:  BAJO BAUDO, BUENAVENTURA, CERRITO",4.695,-77.508,160,,,10,,154,,
5830,No,2004,11,19,5,IRAN,IR,IRAN:  W,32.023,48.836,140,,,,,,,
5812,No,2004,11,20,6,COSTA RICA,CR,"COSTA RICA:  SAN JOSE, PARRITA, QUEPOS",9.602,-84.172,100,8,,,,526,,
5813,Yes,2004,11,21,6,GUADELOUPE,GP,"GUADELOUPE:  BASSE-TERRE, LES SAINTES",15.679,-61.706,90,1,,12,,,,
5814,No,2004,11,22,5,IRAN,IR,"IRAN:  KHORRAMABAD, POL-E DOKHTAR",33.297,47.977,140,,,,,,,
5815,Yes,2004,11,22,7,NEW ZEALAND,NZ,"NEW ZEALAND:  INVERCARGILL, SOUTHLAND, OTAGO",-46.676,164.721,170,,,,,,,
5816,No,2004,11,24,5,ITALY,IT,ITALY:  NORTHERN:  BRESCIA,45.626,10.559,130,,,9,,,,
5817,No,2004,11,26,7,INDONESIA,ID,INDONESIA:  NABIRE,-3.609,135.404,170,32,,130,55,328,,
5818,Yes,2004,11,28,7,JAPAN,JP,"JAPAN:  HOKKAIDO:  BEKKAI, KUSHIRO, NEMOURO",43.006,145.119,30,,,24,,,,
5819,No,2004,12,1,4,ALGERIA,DZ,ALGERIA:  BOUMERDAS,36.848,3.448,15,,,15,,,,
5831,No,2004,12,2,6,TRINIDAD AND TOBAGO,TT,TRINIDAD:  MAYARO,10.49,-61.48,90,,,,,,,
5832,No,2004,12,5,5,GERMANY,DE,"GERMANY:  EMMENDINGEN, FREIBURG IM BREISGAU",48.115,8.077,120,,,,,,,
5820,No,2004,12,5,4,ALGERIA,DZ,ALGERIA:  ZEMMOURI,36.865,3.421,15,,,46,,,,
5833,No,2004,12,6,7,JAPAN,JP,JAPAN:  HOKKAIDO:  KUSHIRO,42.9,145.228,30,,,4,,,,
5821,No,2004,12,9,5,INDIA,IN,"INDIA:  HAILAKANDI, CACHAR",24.757,92.539,60,,,,,,,
5822,No,2004,12,14,6,JAPAN,JP,"JAPAN:  HOKKAIDO:  OBIRO, HABORO, TOMAMAE",44.119,141.793,30,,,3,,,,
5834,No,2004,12,20,5,TURKEY,TR,TURKEY:  MARMARIS,37.042,28.206,140,,,3,,,,
5835,Yes,2004,12,23,8,AUSTRALIA,AU,AUSTRALIA:  MACQUARIE ISLAND,-49.312,161.345,170,,,,,,,
5823,Yes,2004,12,26,9,INDONESIA,ID,INDONESIA:  SUMATRA:  ACEH:  OFF WEST COAST,3.316,95.854,60,227899,,,10000,,,
5836,No,2005,1,10,5,IRAN,IR,IRAN:  GORGAN,37.103,54.574,140,,,110,,,,
6640,Yes,2005,1,19,6,JAPAN,JP,JAPAN:  EAST COAST HONSHU,34.064,141.491,30,,,,,,,
5838,No,2005,1,20,5,NEW ZEALAND,NZ,NEW ZEALAND:  NORTH ISLAND,-41.223,175.21,170,,,,,,,
5839,No,2005,1,23,6,INDONESIA,ID,INDONESIA:  SULAWESI:  PALU,-1.198,119.933,170,1,,4,,,,
5840,No,2005,1,24,6,ECUADOR,EC,"ECUADOR:  NEAR WEST COAST:  PUERTO LOPEZ, SALANGO",-1.364,-80.785,160,,,,,,,
5842,No,2005,1,25,5,CHINA,CN,CHINA:  YUNNAN PROVINCE:  SIMAO,22.526,100.709,30,,,3,,,,
5841,No,2005,1,25,6,TURKEY,TR,TURKEY:  HAKKARI,37.622,43.703,140,2,,22,,,,
5843,No,2005,1,29,4,SPAIN,ES,"SPAIN:  LA PACA, ZARCILLA DE RAMOS",37.91,-1.82,130,,,,,,,
5844,No,2005,2,2,5,INDONESIA,ID,INDONESIA:  JAVA:  GARUT,-7.037,107.819,60,1,,,,,,
9112,Yes,2005,2,14,6,GUADELOUPE,GP,GUADELOUPE,15.775,-61.744,90,,,,,,,
5846,No,2005,2,14,6,CHINA,CN,CHINA:  XINJIANG PROVINCE:  WUSHI,41.728,79.44,40,,,,,6000,,
5847,No,2005,2,15,5,INDIA,IN,INDIA:  KHASPUR,24.55,92.524,60,,,,,,,
5848,No,2005,2,22,6,IRAN,IR,IRAN:  KERMAN PROVINCE:  ZARAND,30.754,56.816,140,612,,1411,,8000,,
5849,No,2005,3,2,5,PAKISTAN,PK,PAKISTAN:  QUETTA,30.378,68.038,60,,,1,,,,
5850,No,2005,3,9,4,SOUTH AFRICA,ZA,"SOUTH AFRICA:  KLERKSDORP, STILFONTEIN",-26.913,26.789,10,2,,58,,,,
5851,No,2005,3,12,5,TURKEY,TR,"TURKEY:  CAT, KARLIOVA",39.44,40.978,140,,,16,,,,
5852,No,2005,3,13,6,IRAN,IR,IRAN:  SARAVAN,27.095,61.887,140,,,,,,,
5853,No,2005,3,14,6,TURKEY,TR,TURKEY:  EASTERN:  BINGOL PROVINCE,39.354,40.89,140,,,18,,,,
5854,No,2005,3,14,5,INDIA,IN,"INDIA:  MAHARASHTRA:  KOLHAPUR, RATNAGIRI, SATARA",17.145,73.73,60,,,45,,,,
5855,No,2005,3,15,4,INDIA,IN,INDIA:  MAHARASHTRA:  DHEBEWADI,17.072,73.668,60,,,,,,,
5856,No,2005,3,20,6,JAPAN,JP,"JAPAN:  KYUSHU:  FUKUOKA, GENKAI",33.807,130.131,30,1,,500,,65,,
6657,Yes,2005,3,28,8,INDONESIA,ID,INDONESIA:  SUMATERA:  SW,2.085,97.108,60,1313,,340,,300,,
6659,Yes,2005,4,10,6,INDONESIA,ID,INDONESIA:  PADANG,-1.644,99.607,60,,,,,,,
8135,No,2005,6,13,7,CHILE,CL,CHILE:  TARAPACA,-19.987,-69.197,160,11,,200,,544,,
6738,Yes,2005,6,15,7,USA,US,CALIFORNIA:  OFF COAST NORTHERN,41.301,-125.97,150,,,,,,,
6757,No,2005,7,5,6,INDONESIA,ID,INDONESIA:  SUMATRA:  NIAS ISLAND:  GUNUNGSITOLI,1.819,97.082,60,,,,,,,
6758,No,2005,7,9,6,INDONESIA,ID,INDONESIA:  SULAWESI:  DONGGALA,-1.174,119.963,170,,,,,6,,
6759,No,2005,7,10,5,ALBANIA,AL,ALBANIA:  TROPOJE,42.389,19.812,130,,,,,,,
6760,No,2005,7,18,5,INDONESIA,ID,INDONESIA:  TIMOR:  TIMOR TENGAH UTARA,-9.948,124.48,60,,,,,,,
6761,No,2005,7,23,6,JAPAN,JP,JAPAN:  HONSHU:  TOKYO,35.498,139.982,30,,,27,,1,,
6762,No,2005,7,24,7,INDIA,IN,"INDIA:  ANDAMAN ISLANDS,  NICOBAR ISLANDS",7.92,92.19,60,,,,,,,
6763,No,2005,7,25,5,CHINA,CN,CHINA:  DAQING,46.827,125.058,30,1,,12,,,,
6764,No,2005,7,26,5,USA,US,"MONTANA:  DILLON, SILVER STAR, TWIN BRIDGES",45.365,-112.615,150,,,,,,,
6765,No,2005,7,30,5,TURKEY,TR,"TURKEY:  BAHCEKARADALAK, SIRAPINAR, YENIYAPANSEYHLI",39.437,33.089,140,,,,,,,
6766,No,2005,8,5,5,CHINA,CN,CHINA:  YUNNAN PROVINCE:  HUIZE,26.569,103.036,30,,,9,,3700,,
6767,No,2005,8,5,4,VIETNAM,VN,VIETNAM:  HO CHI MINH CITY,9.985,108.383,30,,,,,,,
6768,No,2005,8,9,5,IRAN,IR,IRAN:  FIRUZABAD,28.85,52.56,140,,,,,,,
6769,No,2005,8,13,4,CHINA,CN,CHINA:  YUNNAN PROVINCE:  WENSHAN,23.627,104.103,30,,,26,,,,
6770,No,2005,8,14,6,CHILE,CL,CHILE:  TARAPACA,-19.78,-68.98,160,,,,,,,
6771,No,2005,8,14,4,INDIA,IN,INDIA:  MAHARASHTRA,17.398,74.118,60,,,,,,,
6739,Yes,2005,8,16,7,JAPAN,JP,JAPAN:  EAST COAST HONSHU,38.276,142.039,30,,,56,,1,,
6773,No,2005,8,16,4,INDIA,IN,INDIA:  UTTARANCHAL:  UTTARKAHI,30.924,78.56,60,,,,,,,
6774,No,2005,8,30,5,INDIA,IN,"INDIA: MAHARASHTRA: AMBEGHAR, DICHOLI, KISRULE",17.067,73.773,60,,,,,,,
6775,No,2005,9,9,7,PAPUA NEW GUINEA,PG,PAPUA NEW GUINEA:  NEW IRELAND,-4.539,153.474,170,,,,,,,
6822,No,2005,9,24,6,ETHIOPIA,ET,ETHIOPIA:  DABBAHU,12.471,40.634,10,,,,,,,
6776,No,2005,9,26,7,PERU,PE,"PERU:  LAMAS, CHACHAPOYAS, MOYOBAMBA, TARAPOTA",-5.678,-76.398,160,5,,60,,,,
6777,No,2005,10,1,5,PERU,PE,PERU:  MOQUEGUA,-16.635,-70.794,160,,,10,,300,,
6778,No,2005,10,8,7,PAKISTAN,PK,"PAKISTAN:  MUZAFFARABAD, URI, ANANTNAG, BARAMULA",34.539,73.588,60,76213,,146599,6680,,,
6779,No,2005,10,20,6,TURKEY,TR,TURKEY:  IZMIR,38.152,26.751,140,1,,15,,,,
6824,No,2005,10,24,5,ECUADOR,EC,ECUADOR:  BAEZA,-0.507,-77.745,160,,,,,,,
6825,No,2005,10,27,4,CHINA,CN,CHINA:  GUANGXI PROVINCE,23.604,107.798,30,1,,1,,,,
6826,No,2005,10,31,5,PERU,PE,PERU:  N,-5.852,-78.704,160,,,,,20,,
6827,Yes,2005,11,14,7,JAPAN,JP,JAPAN:  EAST COAST HONSHU,38.107,144.896,30,,,,,,,
6828,No,2005,11,26,5,CHINA,CN,"CHINA:  JIANGXI:  JIUJIANG, RUICHANG",29.695,115.689,30,16,,8000,,150000,,
7251,No,2005,11,26,4,TURKEY,TR,TURKEY:  DOGANYOL,38.26,38.814,140,,,,,,,
6829,No,2005,11,27,6,IRAN,IR,"IRAN:  QESHM, ZIRANG",26.774,55.858,140,13,,100,,,,
6830,No,2005,12,5,7,CONGO,CD,CONGO:  KALEMIE,-6.224,29.83,10,6,,,,300,,
6831,No,2005,12,12,6,AFGHANISTAN,AF,"AFGHANISTAN:  TILI, JALALABAD, BADAKHSHAN",36.357,71.093,40,5,,1,,100,,
7252,No,2005,12,14,5,INDIA,IN,"INDIA:  JAUSARI, CHAMOLI, NANDPRAYAG",30.476,79.255,60,1,,4,,1,,
7253,No,2005,12,24,4,TURKEY,TR,TURKEY:  AKHISAR,38.804,26.783,140,,,,,,,
7222,No,2006,1,8,7,GREECE,GR,GREECE:  SOUTHERN,36.311,23.212,130,,,3,,,,
8956,No,2006,1,27,7,INDONESIA,ID,INDONESIA:  BANDA SEA,-5.473,128.131,170,,,,,,,
7223,No,2006,2,14,5,INDIA,IN,INDIA:  SIKKIM,27.382,88.388,60,2,,2,,,,
7224,No,2006,2,20,5,BULGARIA,BG,GREECE-BULGARIA BORDER REGION,41.708,25.544,110,,,2,,,,
7225,No,2006,2,22,7,MOZAMBIQUE,MZ,MOZAMBIQUE,-21.324,33.583,10,4,,36,,294,,
7226,No,2006,2,23,6,BHUTAN,BT,BHUTAN:  TASHIGANG,26.912,91.705,60,,,,,126,,
7227,No,2006,2,28,6,IRAN,IR,IRAN:  SOUTHERN,28.12,56.865,140,,,6,,,,
7228,No,2006,3,7,5,INDIA,IN,INDIA:  GUJARAT,23.777,70.899,60,,,7,,,,
7229,No,2006,3,10,5,PAKISTAN,PK,PAKISTAN:  MIRPUR DISTRICT,33.129,73.887,60,1,,22,,,,
7230,Yes,2006,3,14,6,INDONESIA,ID,INDONESIA:  SERAM,-3.595,127.214,170,4,,,,241,,
7231,No,2006,3,20,5,ALGERIA,DZ,ALGERIA:  NORTHERN,36.623,5.328,15,4,,9,,62,,
7232,No,2006,3,25,6,IRAN, IR,IRAN:  SOUTHERN,27.574,55.685,140,1,,1,,,,
7233,No,2006,3,28,5,INDONESIA,ID,INDONESIA:  N. SUMATRA: TAPAKTUAN,3.462,97.224,60,,,,,,,
7234,No,2006,3,31,6,IRAN, IR,"IRAN:  WESTERN:  BORUJERD, DORUD",33.5,48.78,140,70,,1300,,,,
7235,No,2006,3,31,5,CHINA,CN,"CHINA:  JILIN PROVINCE:  JILIN, SONGYUAN",44.624,124.122,30,,,,,,,
7236,No,2006,4,1,6,TAIWAN,TW,TAIWAN:  T'AIT-TUNG,22.868,121.278,30,,,42,,,,
7237,No,2006,4,4,5,PAKISTAN,PK,PAKISTAN:  BATGRAM,34.6,73.136,60,,,28,,,,
7238,No,2006,4,6,5,INDIA,IN,INDIA:  GUJARAT,23.322,70.477,60,,,,,,,
7239,No,2006,4,11,5,GREECE,GR,GREECE:  ZAKYNTHOS,37.64,20.92,130,,,,,,,
7240,No,2006,4,19,6,CHINA,CN,CHINA:  TIBET (XIZANG PROVINCE),31.607,90.413,40,,,,,,,
7241,No,2006,4,20,7,RUSSIA,RU,RUSSIA:  KORYAKSKIY,60.949,167.089,50,,,40,55,,,
7078,Yes,2006,5,3,8,TONGA,TO,TONGA ISLANDS,-20.187,-174.123,170,,,1,,,,
7242,No,2006,5,4,4,PANAMA,PA,PANAMA:  BOQUETE,8.898,-82.543,100,,,,,,,
7243,No,2006,5,7,4,IRAN, IR,IRAN:  ZARAND,30.79,56.7,140,,,70,,,,
7244,No,2006,5,12,5,INDONESIA,ID,INDONESIA:  SUMATRA:  KALIANDAK,-5.575,105.395,60,,,,,,,
7245,No,2006,5,26,6,INDONESIA,ID,"INDONESIA:   JAVA:  BANTUL, YOGYAKARTA",-7.961,110.446,60,5749,,38568,3100,127000,,
7246,No,2006,6,3,5,IRAN, IR,IRAN:  SOUTHERN:  QESHM,26.759,55.843,140,2,,4,,,,
7247,No,2006,6,3,4,TURKEY,TR,TURKEY:  HAKKARI,37.605,43.787,140,,,,,,,
7407,No,2006,6,3,4,MALAWI,MW,MALAWI:  SALIMA,-14.52,34.28,10,,,,,,,
7248,No,2006,6,11,6,JAPAN,JP,JAPAN:  KYUSHU,33.129,131.141,30,,,8,,,,
7249,No,2006,6,13,4,ALBANIA,AL,ALBANIA:  TEPELENE,40.27,19.96,130,,,1,,12,,
7250,No,2006,6,20,4,CHINA,CN,CHINA:  GANSU PROVINCE,33.068,104.95,30,,,5,,,,
7181,Yes,2006,7,17,7,INDONESIA,ID,INDONESIA:  JAVA,-9.254,107.411,60,802,,498,55,1623,,
7321,No,2006,7,22,5,CHINA,CN,CHINA:  YANJIN,27.995,104.138,30,22,,106,,,,
7363,No,2006,7,29,5,TAJIKISTAN,TJ,TAJIKISTAN:  PANJ-QUMSANGIR,37.255,68.828,40,3,,19,,721,,
7364,No,2006,8,5,5,ARGENTINA,AR,ARGENTINA:  MENDOZA,-33.131,-68.707,160,,,,,,,
7365,No,2006,8,18,5,TAJIKISTAN,TJ,TAJIKISTAN:  DUSHANBE (STALINABAD),38.246,69.22,40,,,,,,,
7366,No,2006,8,24,4,FRANCE,FR,FRANCE,45.84,-0.14,120,,,,,,,
7367,No,2006,8,25,4,CHINA,CN,CHINA:  SICHUAN PROVINCE,28.012,104.151,30,1,,31,,,,
7370,No,2006,9,10,6,MEXICO,MX,GULF OF MEXICO,26.319,-86.606,90,,,,,,,
7369,Yes,2006,9,28,7,SAMOA,WS,SAMOA ISLANDS,-16.592,-172.033,170,,,,,,,
7408,No,2006,9,29,6,TRINIDAD AND TOBAGO,TT,TRINIDAD:  PORT-OF-SPAIN,10.876,-61.756,90,,,3,,1,,
7409,No,2006,9,29,5,TRINIDAD AND TOBAGO,TT,TRINIDAD:  GASPARILLO,10.814,-61.758,90,1,,,,,,
7368,Yes,2006,10,15,6,USA,US,HAWAIIAN ISLANDS,19.878,-155.935,150,,,,73,,,
7410,No,2006,10,20,6,PERU,PE,PERU:  CENTRAL,-13.457,-76.677,160,,,,,,,
7411,No,2006,10,27,4,CHINA,CN,CHINA:  HUBEI,31.56,113.21,30,,,,,,,
7412,No,2006,11,3,5,CHINA,CN,CHINA:  NEI MONGOL,43.469,119.558,30,,,,,5586,,
7406,Yes,2006,11,15,8,RUSSIA,RU,RUSSIA:  KURIL ISLANDS,46.592,153.266,50,,,1,,,,
7416,No,2006,11,17,4,FRANCE,FR,FRANCE:  PYRENEES,42.99,-0.05,120,,,,,,,
7417,No,2006,11,23,4,HUNGARY,HU,HUNGARY:  BEREGDAROC,48.195,22.46,110,,,,,,,
7418,No,2006,11,23,4,CHINA,CN,CHINA:  XINJIANG PROVINCE:  NORTH,44.229,83.524,40,,,,,60,,
7419,No,2006,11,24,5,INDONESIA,ID,INDONESIA:  SULAWESI: PINRANG,-3.728,119.233,170,,,,,,,
7414,No,2006,11,29,6,INDONESIA,ID,INDONESIA:  HALMAHERA:  MOROTAI,2.52,128.283,170,,,,,50,,
7420,No,2006,12,1,6,INDONESIA,ID,INDONESIA:  SUMABAWA:  BIMA,-8.251,118.777,60,1,,14,,20,,
7421,No,2006,12,8,4,SWITZERLAND,CH,SWITZERLAND:  BASEL,47.58,7.6,120,,,,,,,
7441,No,2006,12,12,4,THAILAND,TH,THAILAND:  MAE RIM,18.901,98.916,60,,,,,5,,
7444,No,2006,12,17,5,INDONESIA,ID,"INDONESIA:  SUMATERA:  NORTHERN, MUARASIPONGI",0.626,99.859,60,7,,100,,680,,
7449,No,2006,12,24,4,INDIA,IN,INDIA:  RAJASTHAN,26.88,76.15,60,,,,,,,
7450,No,2006,12,25,6,KYRGYZSTAN,KG,KYRGYZSTAN:  KOCHKOR,42.156,76.163,40,,,,,2410,,
7413,Yes,2006,12,26,7,TAIWAN,TW,TAIWAN:  PINGTUNG,21.799,120.547,30,2,,40,,,,
7451,No,2006,12,31,4,HUNGARY,HU,HUNGARY:  BUDAPEST,47.449,19.343,110,,,,,,,
7452,No,2007,1,8,6,KYRGYZSTAN,KG,KYRGYZSTAN:  ISFARIA,39.803,70.311,40,,,,,187,,
7453,No,2007,1,9,4,CHINA,CN,CHINA:  GANSU PROVINCE,37.021,103.911,30,,,,,2000,,
7454,No,2007,1,10,4,CHINA,CN,CHINA:  GANSU PROVINCE,33.259,104.74,30,,,,,,,
7415,Yes,2007,1,13,8,RUSSIA,RU,RUSSIA:  KURIL ISLANDS,46.243,154.524,50,,,,,,,
7455,No,2007,1,21,5,TURKEY,TR,TURKEY:  E,39.592,42.863,140,,,2,,,,
7456,No,2007,1,21,7,INDONESIA,ID,INDONESIA:  MOLUCCA ISLANDS:  N,1.065,126.282,170,4,,4,,,,
7462,No,2007,2,16,5,PHILIPPINES,PH,PHILIPPINES:  MINDANAO,6.614,126.24,170,,,,,,,
7463,No,2007,2,21,6,TURKEY,TR,"TURKEY:  DOGANKOY, PUTURGE, SIVRICE",38.318,39.267,140,,,,,,,
7481,No,2007,3,6,6,INDONESIA,ID,INDONESIA:  SUMATRA:  SOUTHERN,-0.493,100.498,60,67,,826,,43719,,
7482,No,2007,3,6,5,COLOMBIA,CO,"COLOMBIA:  CAUCA, SOTARA, PURACE,",2.082,-76.495,160,,,9,,9,,
7483,No,2007,3,6,5,IRAN, IR,IRAN:  WESTERN:  DORUD,33.49,48.93,140,,,35,,,,
7459,Yes,2007,3,25,7,VANUATU,VU,VANUATU ISLANDS,-20.617,169.357,170,,,,,,,
7448,Yes,2007,3,25,6,JAPAN,JP,JAPAN:  HONSHU:  W COAST,37.336,136.588,30,1,,150,,58,455,
7484,No,2007,3,25,6,GREECE,GR,"GREECE:  ARGOSTOLION, KEFALLINIA",38.34,20.42,130,,,,,,,
7457,Yes,2007,4,1,8,SOLOMON ISLANDS,SB,SOLOMON ISLANDS,-8.466,157.043,170,52,,,,2500,500,
7501,No,2007,4,13,6,MEXICO,MX,"MEXICO:  GUERRERO, ATOYAC",17.302,-100.198,150,,,,,2,,
7502,No,2007,4,15,4,JAPAN,JP,JAPAN:  HONSHU:  W,34.807,136.239,30,,,12,,63,,
7503,No,2007,4,16,4,ALBANIA,AL,ALBANIA:  TIRANA,41.172,19.897,130,,,,,,,
7465,Yes,2007,4,21,6,CHILE,CL,CHILE:  SOUTHERN,-45.243,-72.648,160,10,,,,,2,
7526,No,2007,4,28,4,UK,GB,UNITED KINGDOM:  ENGLAND:  FOLKESTONE,51.085,1.009,120,,,1,,,,
7522,No,2007,5,8,4,USA,US,MONTANA:  SHERIDAN,45.394,-112.13,150,,,,,,,
7523,No,2007,5,16,6,LAOS,LA,"LAOS:  BOKEO;  THAILAND:  CHIANG RAI, CHIAN SAEN",20.504,100.746,60,,,,,,,
7524,No,2007,5,29,6,INDONESIA,ID,INDONESIA: LABUHA,-1.065,127.343,170,,,,,,,
7525,No,2007,6,2,6,CHINA,CN,CHINA:  YUNNAN PROVINCE:  NING'ER,23.028,101.052,30,3,,329,310,,,
7534,No,2007,6,13,7,GUATEMALA,GT,GUATEMALA:  GUATEMALA CITY,13.554,-90.618,100,,,,,,,
7535,No,2007,6,18,5,IRAN, IR,IRAN:  QOM,34.437,50.833,140,,,,,,,
7554,No,2007,7,13,4,ECUADOR,EC,ECUADOR:  ZARUMA,-3.987,-79.836,160,,,,,,,
7521,Yes,2007,7,16,6,JAPAN,JP,JAPAN:  HONSHU:  W COAST,37.57,138.478,30,9,,1088,12500,,875,
7595,No,2007,7,20,5,CHINA,CN,CHINA:  XINJIANG:  TEKES,42.913,82.378,40,,,,,2120,,
7596,No,2007,7,20,4,USA,US,CALIFORNIA:  MONTCLAIR,37.804,-122.193,150,,,,,,,
7597,No,2007,7,21,5,TAJIKISTAN,TJ,"TAJIKISTAN:  RASHT, ASHT",38.936,70.485,40,12,,,,,,
7598,No,2007,7,22,4,INDIA,IN,"INDIA:  UTTARKASHI, CHAMOLI, MUZAFFARNAGAR",30.881,78.239,60,,,3,,,,
7599,No,2007,7,26,7,INDONESIA,ID,INDONESIA:  MALUKU:  N,2.872,127.464,170,,,,,,,
7600,No,2007,8,1,7,VANUATU,VU,VANUATU ISLANDS:  LUGANVILLE,-15.595,167.68,170,,,,,,,
7531,Yes,2007,8,2,6,RUSSIA,RU,RUSSIA:  TATAR STRAIT,47.116,141.798,50,2,,12,,11,20,
7532,Yes,2007,8,2,6,USA,US,ALASKA:  ALEUTIAN ISLANDS,51.307,-179.971,150,,,,,,,
7601,No,2007,8,6,4,USA,US,UTAH:  HUNTINGTON,39.465,-111.237,150,9,,,,,,
7533,No,2007,8,8,7,INDONESIA,ID,INDONESIA:  JAVA,-5.968,107.655,60,,,,,,,
7537,Yes,2007,8,15,8,PERU,PE,"PERU:  ICA, PISCO, LIMA",-13.386,-76.603,160,514,,1090,,52154,23632,
7614,No,2007,8,17,1,USA,US,UTAH,39.464,-111.207,150,3,,6,,,,
7615,No,2007,8,20,4,INDIA,IN,INDIA:  MAHARASHTRA:  SATARA,17.2,73.7,60,,,,,,,
7616,No,2007,8,25,5,IRAN, IR,"IRAN:  HADJI ABAD, ORZUIYEH",28.154,56.652,140,,,4,,,,
8136,Yes,2007,9,2,7,SOLOMON ISLANDS,SB,SOLOMON ISLANDS:  SANTA CRUZ ISLANDS,-11.61,165.762,170,,,,,,,
7617,No,2007,9,9,5,INDONESIA,ID,INDONESIA:  SITUBONDO,-7.783,114.338,60,,,13,,,,
7695,No,2007,9,10,6,COLOMBIA,CO,"COLOMBIA:  NARINO, EL CHARCO, ISCUANDE, LA TOLA",2.982,-77.967,160,,,5,,35,,
7574,Yes,2007,9,12,8,INDONESIA,ID,INDONESIA:  SUMATRA,-4.438,101.367,60,25,,161,,56425,,
7575,No,2007,9,12,8,INDONESIA,ID,INDONESIA:  SUMATRA,-2.625,100.841,60,,,,,,,
8957,No,2007,9,28,7,JAPAN,JP,JAPAN:  VOLCANO ISLANDS,22.013,142.668,30,,,,,,,
7594,Yes,2007,9,30,7,NEW ZEALAND,NZ,NEW ZEALAND:  AUCKLAND ISLANDS,-49.418,163.954,170,,,,,,,
7696,No,2007,10,15,7,NEW ZEALAND,NZ,NEW ZEALAND:  SOUTH ISLAND:  FIORDLAND,-44.785,167.583,170,,,,,,,
7697,No,2007,10,26,5,PAKISTAN,PK,PAKISTAN:  GHANCHE,35.304,76.753,60,1,,12,,,,
7698,No,2007,10,31,5,USA,US,CALIFORNIA:  SAN JOSE,37.434,-121.774,150,,,,,,,
7699,No,2007,11,6,5,INDIA,IN,INDIA:  GUJARAT,21.181,70.724,60,1,,5,,,,
7700,No,2007,11,7,5,PHILIPPINES,PH,PHILIPPINES:  BOHOL ISLAND:  MABINI,9.721,124.647,170,1,,,,,,
7701,No,2007,11,7,5,BANGLADESH,BD,"BANGLADESH:  CHITTAGONG, BANDARBAN, RANGAMATI",22.15,92.388,60,,,10,,,,
7634,Yes,2007,11,14,7,CHILE,CL,"CHILE:  TOCOPILLA, MARIA ELENA",-22.247,-69.89,160,2,,65,,,,
7702,No,2007,11,16,7,ECUADOR,EC,PERU-ECUADOR:  GUAYAQUIL,-2.312,-77.838,160,,,,,,,
7703,No,2007,11,20,5,IRAN, IR,"IRAN:  WESTERN:  QAL' EH-YE TOL, KHUZESTAN",31.68,49.93,140,,,30,,,,
7674,No,2007,11,25,6,INDONESIA,ID,INDONESIA:  SUMBAWA ISLAND,-8.277,118.339,60,3,,,,,,
7704,No,2007,11,25,5,INDIA,IN,"INDIA:  BADAUN, MEERUT, NOIDA, REWARI",28.555,77.057,60,,,,,,,
7675,Yes,2007,11,29,7,MARTINIQUE,MQ,MARTINIQUE,14.944,-61.274,90,1,,102,,,,
7708,No,2007,12,9,5,BRAZIL,BR,BRAZIL:  MINAS GERAIS,-15.048,-44.231,160,1,,6,,76,,
7694,Yes,2007,12,9,8,KERMADEC ISLANDS (NEW ZEALAND),NZ,KERMADEC ISLANDS,-25.996,-177.514,170,,,,,,,
7723,No,2007,12,15,6,CHILE,CL,"CHILE:  OFF CENTRAL COAST, VINA DEL MAR, VALPARAISO",-32.689,-71.695,160,,,4,,,,
7724,No,2007,12,20,6,NEW ZEALAND,NZ,NEW ZEALAND:  OFF COAST NORTH ISLAND,-39.011,178.291,170,1,,,,3,,
7725,No,2007,12,20,5,TURKEY,TR,"TURKEY:  CENTRAL:  YENIYAPAN, ABAZLAR, SUYUGUZEL",39.417,33.212,140,,,,,,,
7726,No,2007,12,26,5,TURKEY,TR,TURKEY:  CENTRAL:  ANKARA,39.446,33.162,140,,,,,2214,,
7745,No,2008,1,1,5,KYRGYZSTAN,KG,KYRGYZSTAN:  OSH,40.288,72.985,40,,,,,5385,,
7746,No,2008,1,5,5,GUATEMALA,GT,"GUATEMALA:  COLOMBA, FLORES, COSTA CUCA",14.129,-91.479,100,,,,,,,
7747,No,2008,1,7,5,INDONESIA,ID,"INDONESIA: NEW GUINEA: MANOKWARI,",-0.795,134.012,170,,,6,,,22,
7748,No,2008,1,9,4,ALGERIA,DZ,ALGERIA:  ORAN,35.616,-0.57,15,1,,,,,,
7749,No,2008,1,12,6,BANGLADESH,BD,"INDIA-BANGLADESH:  RANGAMATI, BANGLADESH",22.761,92.333,60,,,,,,,
7750,No,2008,1,22,6,INDONESIA,ID,INDONESIA:  SUMATRA:  NIAS ISLAND:  GUNUNGSITOLI,1.011,97.442,60,1,,5,,,,
7764,No,2008,2,3,6,CONGO,CD,CONGO:  BUKAVU,-2.296,28.9,10,38,,717,,99,815,
7765,No,2008,2,6,4,INDIA,IN,INDIA:  WEST BENGAL,23.433,87.111,60,1,,50,,,,
7766,No,2008,2,9,5,MEXICO,MX,MEXICO:  BAJA CALIFORNIA,32.456,-115.315,150,,,,,,,
7767,No,2008,2,13,5,IRAN, IR,IRAN:  NASIRABAD,31.73,51.2,140,,,10,,,70,
7768,No,2008,2,14,5,RWANDA,RW,RWANDA:  GISENYI,-2.404,28.918,10,1,,109,,,5,
7769,No,2008,2,15,5,LEBANON,LB,LEBANON-SYRIA:  BAALBEC,33.327,35.305,140,,,10,,,,
7870,No,2008,2,20,7,INDONESIA,ID,INDONESIA:  SUMATERA:  ACEH PROVINCE,2.768,95.964,60,3,,25,,,,
7871,No,2008,2,21,6,USA,US,NEVADA:  WELLS,41.153,-114.867,150,,,3,,,720,
7743,Yes,2008,2,25,6,INDONESIA,ID,INDONESIA:  SUMATRA:  PADANG,-2.486,99.972,60,,,,,,,
7872,No,2008,2,27,5,UK,GB,UNITED KINGDOM:  ENGLAND:  LINCOLNSHIRE,53.403,-0.332,120,,,1,,,,
7873,No,2008,2,29,4,BRAZIL,BR,BRAZIL:  SOBRAL,-3.7,-40.35,160,,,,,,,
7874,No,2008,3,9,4,INDIA,IN,INDIA:  GUJARAT,23.33,70.592,60,,,,,,,
7875,No,2008,3,20,7,CHINA,CN,CHINA:  XINJIANG PROVINCE,35.49,81.467,40,,,,,2200,,
7876,No,2008,3,29,5,PERU,PE,PERU:  OFF COAST,-12.178,-77.164,160,,,1,,5,,
7800,Yes,2008,4,9,7,NEW CALEDONIA,NC,NEW CALEDONIA: LOYALTY ISLANDS,-20.071,168.892,170,,,,,,,
8127,No,2008,4,15,6,GUATEMALA,GT,GUATEMALA,13.564,-90.599,100,,,,,,8,
7823,No,2008,4,18,5,USA,US,ILLINOIS:  WEST SALEM,38.452,-87.886,150,,,,,,,
8128,No,2008,4,26,5,USA,US,NEVADA:  FALLON,39.52,-119.93,150,,,,,,,
8138,Yes,2008,4,28,6,VANUATU,VU,VANUATU ISLANDS,-19.941,168.953,170,,,,,,,
8129,No,2008,5,1,4,IRAN, IR,"IRAN:  LORESTAN, BOROUJERD",33.86,48.59,140,,,100,,,,
8130,No,2008,5,7,7,JAPAN,JP,JAPAN:  HONSHU:  E COAST,36.158,141.521,30,,,6,,,,
7843,Yes,2008,5,12,8,CHINA,CN,CHINA:  SICHUAN PROVINCE,31.002,103.322,30,87652,,374171,86000,5360000,21000000,
7879,No,2008,5,24,5,COLOMBIA,CO,"COLOMBIA:  META, QUETAME",4.33,-73.764,160,6,,,,,,
7881,No,2008,5,25,6,CHINA,CN,CHINA:  SICHUAN PROVINCE,32.57,105.424,30,8,,927,,400000,,
8123,No,2008,5,26,5,COSTA RICA,CR,PANAMA-COSTA RICA,8.423,-82.968,100,,,,,,,
8124,No,2008,5,27,5,CHINA,CN,CHINA:  SICHUAN PROVINCE,32.71,105.54,30,,,,,20000,,
7880,No,2008,5,29,6,ICELAND,IS,ICELAND: REYKJAVIK,64.004,-21.012,120,,,30,,,,
8125,No,2008,6,6,5,ALGERIA,DZ,ALGERIA:  ORAN,35.883,-0.658,15,1,,30,,,,
8126,No,2008,6,6,4,INDIA,IN,INDIA:  MANPUR,24.702,84.964,60,,,2,,,,
7925,No,2008,6,8,6,GREECE,GR,"GREECE:  ACHAIA, ILEIA",37.963,21.525,130,2,,240,,1156,,
7907,No,2008,6,13,7,JAPAN,JP,JAPAN:  HONSHU:  TOKYO,39.03,140.881,30,13,,357,,,614,
8120,No,2008,7,1,5,PERU,PE,"PERU:  CENTRAL:  OXAPAMPA, HUANCABAMBA",-10.368,-75.512,160,,,45,,60,25,
8121,No,2008,7,3,5,IRAN, IR,IRAN:  NE:  KATKAN,35.5,58.8,140,,,,,,,
8955,No,2008,7,5,7,RUSSIA,RU,RUSSIA:  SEA OF OKHOTSK,53.882,152.886,50,,,,,,,
8163,No,2008,7,8,6,PERU,PE,PERU:  AREQUIPA,-15.986,-71.748,160,1,,,,,,
7971,Yes,2008,7,19,7,JAPAN,JP,JAPAN:  OFF EAST COAST OF HONSHU ISLAND,37.552,142.214,30,,,,,,,
8164,No,2008,7,23,7,JAPAN,JP,JAPAN:  HONSHU:  N,39.802,141.464,30,1,,200,,,90,
8165,No,2008,7,24,5,CHINA,CN,CHINA:  SICHUAN PROVINCE,32.747,105.542,30,1,,17,,1200,,
8166,No,2008,7,29,5,USA,US,CALIFORNIA:  LOS ANGELES,33.953,-117.761,150,,,8,,,,
8167,No,2008,8,1,6,CHINA,CN,CHINA:  SICHUAN PROVINCE,32.036,104.722,30,,,231,,540,2450,
8168,No,2008,8,5,6,CHINA,CN,CHINA:  SICHUAN PROVINCE,32.756,105.494,30,4,,29,,,,
8169,No,2008,8,11,5,VENEZUELA,VE,VENEZUELA:  CARIACO-CUMANA,10.514,-64.171,160,,,,,,50,
8170,No,2008,8,15,6,PHILIPPINES,PH,PHILIPPINES:  LUZON:  LEGASPI,12.897,124.319,170,,,,,,,
8171,No,2008,8,19,5,CHINA,CN,CHINA:  YUNNAN PROVINCE,25.051,97.919,30,,,,,5,2420,
8172,No,2008,8,21,6,CHINA,CN,CHINA:  YUNNAN PROVINCE,25.044,97.684,30,5,,127,,,,
8173,No,2008,8,25,5,NEW ZEALAND,NZ,NEW ZEALAND:  NORTH ISLAND,-39.715,176.851,170,,,,,,,
8174,No,2008,8,25,7,CHINA,CN,CHINA:  TIBET (XIZANG PROVINCE),30.901,83.52,40,,,,,,700,
8175,No,2008,8,27,6,RUSSIA,RU,RUSSIA:  LAKE BAYKAL,51.607,104.158,40,,,,,,,
8132,No,2008,8,30,6,CHINA,CN,CHINA:  SICHUAN PROVINCE,26.272,101.937,30,43,,589,,392000,,
8176,No,2008,9,3,4,TURKEY,TR,TURKEY:  ADIYAMAN,37.507,38.503,140,,,,,,,
8185,No,2008,9,9,5,INDONESIA,ID,INDONESIA:  SUMATRA:  SOUTHERN,-3.935,103.058,60,2,,,,,113,
8133,No,2008,9,10,6,IRAN, IR,IRAN:  HORMOZGAN PROVINCE,26.743,55.828,140,7,,45,,,,
8134,Yes,2008,9,11,7,JAPAN,JP,JAPAN:  HOKKAIDO,41.892,143.754,30,,,,,,,
8186,No,2008,9,16,5,INDIA,IN,INDIA:  MAHARASHTRA,17.438,73.915,60,1,,20,,,1500,
8160,No,2008,10,5,6,KYRGYZSTAN,KG,KYRGYZSTAN: NURA,39.533,73.824,40,74,,140,,,,
8161,No,2008,10,6,6,CHINA,CN,CHINA:  TIBET (XIZANG PROVINCE),29.807,90.35,40,9,,19,,,,
8162,No,2008,10,11,6,RUSSIA,RU,RUSSIA:  CAUCASUS:  CHECHNYA,43.372,46.254,40,13,,100,,,1027,
8177,No,2008,10,28,6,PAKISTAN,PK,PAKISTAN:  QUETTA,30.639,67.351,60,166,,370,,3487,4125,
8206,No,2008,10,29,6,PAKISTAN,PK,PAKISTAN:  ZIARAT,30.598,67.455,60,,,1,,,,
8207,No,2008,11,10,6,CHINA,CN,CHINA:  QINGHAI PROVINCE,37.565,95.833,40,,,3,4,,,
8191,Yes,2008,11,16,7,INDONESIA,ID,INDONESIA:  MINAHASSA PENINSULA,1.271,122.091,170,6,,77,,,1000,
8192,No,2008,11,19,6,PANAMA,PA,"PANAMA:  PASO CANOA, DAVID, PUERTO ARMUELLES",8.267,-82.967,100,,,,,,,
8208,No,2008,11,22,4,CZECH REPUBLIC,CZ,CZECH REPUBLIC:  KARVINA,49.914,18.455,110,2,,3,,,,
8253,No,2008,12,7,5,IRAN, IR,IRAN:  S,26.99,55.8,140,,,5,,,,
8254,No,2008,12,9,4,CHINA,CN,CHINA:  SICHUAN PROVINCE,32.518,105.395,30,2,,3,,,,
8255,No,2008,12,10,4,ARGENTINA,AR,ARGENTINA:  POTRERILLOS,-32.938,-69.259,160,,,,,,,
8256,No,2008,12,25,4,MYANMAR (BURMA),MM,MYANMAR (BURMA),23.97,97.569,60,,,19,,30,5400,
9834,No,2008,12,25,4,CHINA,CN,CHINA:  YUNNAN PROVINCE:  SIMAO,23.97,97.569,30,,,19,,30,5400,
8257,No,2008,12,29,5,AFGHANISTAN,AF,"AFGHANISTAN; PAKISTAN:  MANSEHRA, SHANGLA",36.401,71.075,40,,,,,,,
8204,Yes,2009,1,3,7,INDONESIA,ID,PAPUA NEW GUINEA:  NEAR NORTH COAST,-0.414,132.885,170,5,,250,,,840,
8211,Yes,2009,1,3,7,INDONESIA,ID,PAPUA NEW GUINEA:  NEAR NORTH COAST,-0.691,133.305,170,,,,,,,
8210,No,2009,1,8,6,COSTA RICA,CR,COSTA RICA:  LA PAZ,10.165,-84.197,100,23,17,100,,518,,
8250,Yes,2009,1,15,7,RUSSIA,RU,RUSSIA:  KURIL ISLANDS,46.857,155.154,50,,,,,,,
8258,No,2009,1,21,5,PERU,PE,PERU:  PACCHA,-11.779,-75.626,160,,,,,50,500,
8251,Yes,2009,2,11,7,INDONESIA,ID,INDONESIA:  KEPULAUAN TALAUD,3.884,126.397,170,,,64,,,597,
8278,No,2009,2,20,5,PAKISTAN,PK,PAKISTAN; INDIA:  KASHMIR,34.204,73.899,60,,,44,,,,
8279,No,2009,2,20,5,CHINA,CN,CHINA:  XINJIANG PROVINCE,40.657,78.692,40,,,,,331,5613,
8259,Yes,2009,3,19,7,TONGA,TO,TONGA ISLANDS,-23.046,-174.659,170,,,,,,,
8298,No,2009,3,26,4,INDIA,IN,INDIA:  CHAIBASA,22.399,85.903,60,,,5,,,,
8299,No,2009,3,31,4,NICARAGUA,NI,NICARAGUA:  SAN JUAN DEL RIO COCO,13.452,-86.06,100,,,,,3,10,
8264,No,2009,4,6,6,ITALY,IT,ITALY:  L'AQUILA,42.334,13.334,130,309,,1500,2500,15000,,
8277,No,2009,4,7,5,ITALY,IT,ITALY:  L'AQUILA,42.275,13.464,130,1,,,,,,
8317,No,2009,4,9,5,INDIA,IN,INDIA:  JAISALMER,27.143,70.749,60,,,6,,,,
8318,No,2009,4,16,5,AFGHANISTAN,AF,AFGHANISTAN:  NANGARHAR,34.185,70.076,40,19,,51,,200,,
8379,No,2009,5,17,5,SAUDI ARABIA,SA,SAUDI ARABIA: WESTERN,25.212,37.597,140,,,,,,,
8380,No,2009,5,19,5,SAUDI ARABIA,SA,SAUDI ARABIA: WESTERN,25.292,37.744,140,,,7,,,,
8381,No,2009,5,19,5,INDIA,IN,INDIA:  KASHMIR,33.198,75.787,60,,,,,,100,
8382,No,2009,5,24,5,MACEDONIA,MK,BALKANS NW:  MACEDONIA,41.303,22.714,130,,,,,,,
8297,Yes,2009,5,28,7,HONDURAS,HN,HONDURAS:  NORTHERN; BELIZE,16.72,-86.236,90,7,,40,,135,25,
8384,No,2009,5,29,5,VANUATU,VU,VANUATU ISLANDS:  TONGOA,-17.026,168.329,170,,,10,,,,
8385,No,2009,6,2,6,VANUATU,VU,VANUATU ISLANDS:  TONGOA,-17.757,167.949,170,,,4,,,,
8383,No,2009,6,13,5,KAZAKHSTAN,KZ,KAZAKHSTAN:  TEKELI,44.724,78.864,40,1,,,,,,
10419,Yes,2009,7,1,6,GREECE,GR,GREECE:  CRETE,34.164,25.471,130,,,,,,,
8388,No,2009,7,4,6,PANAMA,PA,PANAMA: PANAMA CITY,9.59,-78.966,100,,,32,,,10,
8389,No,2009,7,9,6,CHINA,CN,CHINA:  YUNNAN PROVINCE:  YAOAN COUNTY,25.632,101.095,30,,,336,,,,
8357,Yes,2009,7,15,8,NEW ZEALAND,NZ,NEW ZEALAND:  OFF WEST COAST OF SOUTH ISLAND,-45.762,166.562,170,,,,,,,
8390,No,2009,7,24,6,CHINA,CN,CHINA: TIBET (XIZANG PROVINCE):   GYUNGCAN,31.158,85.902,40,,,,,6,,
8492,No,2009,8,8,3,CHINA,CN,CHINA:  CHONGQING PROVINCE:  RONGCHANG,29.358,105.438,30,2,,1,,440,,
8378,Yes,2009,8,10,7,INDIA,IN,INDIA:  ANDAMAN I,14.099,92.888,60,,,,,,,
8377,Yes,2009,8,10,6,JAPAN,JP,JAPAN:  HONSHU:  S COAST,34.743,138.264,30,1,,123,,,5192,
8472,Yes,2009,8,16,7,INDONESIA,ID,INDONESIA:  SUMATRA:  PADANG,-1.479,99.49,60,,,9,,,,
8512,No,2009,8,28,6,CHINA,CN,CHINA:  QINGHAI PROVINCE,37.696,95.718,40,,,,,,30,
8513,No,2009,8,30,5,MYANMAR (BURMA),MM,MYANMAR (BURMA);  INDIA:  SIBSAGAR,25.28,95.101,60,,,,,,,
8386,Yes,2009,9,2,7,INDONESIA,ID,INDONESIA:  JAVA,-7.782,107.297,60,81,,1297,,,54000,
8532,No,2009,9,6,6,GEORGIA,GE,GEORGIA:  NORTHWESTERN,42.66,43.443,40,,,1,,,1000,
8387,No,2009,9,12,6,VENEZUELA,VE,VENEZUELA:  CARABOBO,10.705,-67.92,160,,,18,,,17,
8533,No,2009,9,18,6,PHILIPPINES,PH,"PHILIPPINES:  COTABATO, SULTAN KUDARAT",6.513,124.715,170,,,91,,,76,
8534,No,2009,9,18,6,INDONESIA,ID,INDONESIA:  BALI:  DENPASAR,-9.138,115.593,60,,,7,,,,
8392,No,2009,9,21,6,BHUTAN,BT,BHUTAN:  TASHIGANG,27.332,91.437,60,11,,,,,,
8535,No,2009,9,22,3,AUSTRALIA,AU,AUSTRALIA:  MORNINGTON,-38.28,145.25,170,,,,,,,
8408,Yes,2009,9,29,8,SAMOA,WS,SAMOA ISLANDS,-15.489,-172.095,170,192,,7,285,,,
8409,Yes,2009,9,30,7,INDONESIA,ID,INDONESIA:  SUMATRA:  PADANG,-0.72,99.867,60,1117,,1214,2200,,181665,
8552,No,2009,10,1,6,INDONESIA,ID,INDONESIA:  SUMATRA:  SOUTHERN:  KERINCI,-2.515,101.501,60,3,,,10,,,
8410,Yes,2009,10,7,7,VANUATU,VU,VANUATU ISLANDS,-13.006,166.51,170,,,,,,,
8572,No,2009,10,7,7,SOLOMON ISLANDS,SB,SOLOMON ISLANDS:  SANTA CRUZ ISLANDS,-12.517,166.382,170,,,,,,,
8573,No,2009,10,9,5,ECUADOR,EC,ECUADOR:  TENA,-0.962,-77.817,160,,,,,,,
8574,No,2009,10,22,6,AFGHANISTAN,AF,AFGHANISTAN:  HINDU KUSH,36.517,70.95,40,5,,,,,,
8772,No,2009,10,29,5,BHUTAN,BT,"BHUTAN:  MONGAR, PEMAGATSEL, TASHIGANG",27.262,91.417,60,,,,,1,116,
8431,No,2009,11,1,5,CHINA,CN,CHINA:  YUNNAN PROVINCE,25.962,100.825,30,,,28,,1000,30000,
8430,No,2009,11,3,5,IRAN, IR,IRAN:  BANDAR ABBAS,27.334,56.202,140,,,269,,,,
8451,No,2009,11,8,6,INDONESIA,ID,INDONESIA:  SUMABAWA:  BIMA,-8.207,118.631,60,2,,200,2.43,,,
8592,No,2009,11,27,5,VENEZUELA,VE,VENEZUELA:  SIQUISIQUE,10.434,-69.715,160,,,,,,,
8792,No,2009,12,6,3,SOUTH AFRICA,ZA,SOUTH AFRICA:  CARLETONVILLE,-26.414,27.494,10,2,,3,,,,
8793,No,2009,12,8,6,MALAWI,MW,MALAWI:  KARONGA,-9.948,33.878,10,1,,15,,,3000,
8794,No,2009,12,12,5,INDIA,IN,INDIA:  MAHARASHTRA:  SATARA,17.109,73.767,60,,,,,,,
8795,No,2009,12,17,5,JAPAN,JP,JAPAN:  HONSHU:  ITO,34.921,139.261,30,,,7,,,20,
8652,No,2009,12,19,6,TAIWAN,TW,TAIWAN:  HUALIEN,23.796,121.605,30,,,14,,,,
8632,No,2009,12,19,6,MALAWI,MW,MALAWI:  KARONGA,-10.108,33.818,10,3,,250,,1111,3565,
8812,No,2009,12,30,6,MEXICO,MX,MEXICO:  MEXICALI,32.437,-115.165,150,,,,,,,
8813,No,2009,12,31,5,BHUTAN,BT,BHUTAN:  DAMETSI,27.319,91.51,60,,,2,,,700,
8693,No,2010,1,2,5,TAJIKISTAN,TJ,TAJIKISTAN,38.245,71.467,40,,,,1.5,98,1000,
8672,Yes,2010,1,3,6,SOLOMON ISLANDS,SB,SOLOMON ISLANDS,-8.743,157.477,170,,,,,,,
8673,Yes,2010,1,3,7,SOLOMON ISLANDS,SB,SOLOMON ISLANDS,-8.799,157.346,170,,,,,16,60,
8692,Yes,2010,1,5,7,SOLOMON ISLANDS,SB,SOLOMON ISLANDS,-9.019,157.551,170,,,,,,,
8992,No,2010,1,10,5,INDONESIA,ID,INDONESIA:  JAVA:  GARUT,-7.907,107.879,60,1,,2,,,,
8712,No,2010,1,10,6,USA,US,CALIFORNIA:  OFF COAST NORTHERN,40.652,-124.692,150,,,30,21.8,,,
8732,Yes,2010,1,12,7,HAITI,HT,HAITI:  PORT-AU-PRINCE,18.457,-72.533,90,316000,,300000,8000,97294,188383,
8993,No,2010,1,15,5,VENEZUELA,VE,VENEZUELA:  CARIACO,10.454,-63.475,160,,,11,,,3,
8994,No,2010,1,16,5,IRAN, IR,IRAN:  KHUZESTAN:  ARRJAN,32.45,48.3,140,,,,,,150,
8995,No,2010,1,17,4,CHINA,CN,CHINA:  GUIZHOU PROVINCE,25.558,105.804,30,7,1,9,,,,
8752,No,2010,1,30,4,CHINA,CN,CHINA:  SICHUAN PROVINCE: MOXI,30.268,105.668,30,1,,15,,200,,
9052,No,2010,2,25,4,CHINA,CN,CHINA:  YUNNAN PROVINCE,25.523,101.903,30,,,11,,,,
9032,Yes,2010,2,26,7,JAPAN,JP,"JAPAN:  TORI SHIMA, OKINAWA",25.93,128.425,30,,,2,,,,
8872,Yes,2010,2,27,9,CHILE,CL,"CHILE:  MAULE, CONCEPCION, TALCAHUANO",-36.122,-72.898,160,558,,12000,30000,,500000,
9053,No,2010,2,27,6,ARGENTINA,AR,ARGENTINA:  SALTA,-24.872,-65.602,160,2,,2,,,,
9152,No,2010,3,4,6,TAIWAN,TW,TAIWAN:  KAO-HSIUNG,22.918,120.795,30,,,96,1000,,340,
8892,No,2010,3,8,6,TURKEY,TR,"TURKEY:  ELAZIG PROVINCE:  OKCULAR, YUKARI DEMIRCI",38.864,39.986,140,51,,100,,287,700,
8912,Yes,2010,3,11,7,CHILE,CL,CHILE:  RANCAGUA,-34.29,-71.891,160,,,,,,,
9372,No,2010,3,30,6,INDIA,IN,INDIA: ANDAMAN ISLANDS:  DIGLIPUR,13.667,92.831,60,,,10,,,,
8932,No,2010,4,4,7,MEXICO,MX,MEXICO:  BAJA CALIFORNIA,32.297,-115.278,150,2,,233,1150,,,
8973,Yes,2010,4,6,8,INDONESIA,ID,INDONESIA:  SUMATRA,2.383,97.048,60,,,,,,,
8972,No,2010,4,13,7,CHINA,CN,CHINA:  QINGHAI PROVINCE:  YUSHU,33.165,96.548,30,2220,70,12135,500,15000,,
9012,No,2010,4,18,5,AFGHANISTAN,AF,AFGHANISTAN:  SAMANGAN PROVINCE,35.633,67.658,40,11,,70,,2000,,
9033,No,2010,4,20,5,AUSTRALIA,AU,AUSTRALIA:  KALGOORLIE,-30.794,121.406,60,,,3,,,,
9512,No,2010,5,1,4,INDIA,IN,INDIA:  CHAMOLI,30.099,80.026,60,,,,,,,
9513,No,2010,5,6,6,PERU,PE,PERU:  TACNA,-18.058,-70.547,160,,,11,,,,
9092,No,2010,5,9,7,INDONESIA,ID,INDONESIA:  N. SUMATRA: SIMEULUE ISLAND,3.748,96.018,60,,,,,,,
9132,No,2010,5,14,5,ALGERIA,DZ,ALGERIA:  NORTHERN:  BENI YELLMAN,35.9,4.12,15,2,,43,,,,
9514,No,2010,5,16,6,USA TERRITORY,US,"PUERTO RICO:  LARES, VEGA BAJA",18.4,-67.07,90,,,,,,,
9172,Yes,2010,5,29,4,USA TERRITORY,US,"ANATAHAN REGION, N. MARIANA ISLANDS",16.591,145.682,170,,,,,,,
9252,Yes,2010,6,12,7,INDIA,IN,INDIA:  LITTLE NICOBAR ISLAND,7.881,91.936,60,,,,,,,
9764,No,2010,6,15,6,USA,US,CALIFORNIA:  OCOTILLO,32.7,-115.921,150,,,,,,,
9292,No,2010,6,16,7,INDONESIA,ID,INDONESIA: NEW GUINEA:  IRIAN JAYA: JAPEN,-2.174,136.543,170,17,,,,2556,,
9765,No,2010,6,18,6,INDIA,IN,INDIA:  ANDAMAN ISLANDS:  DIGLIPUR,13.197,93.087,60,,,,,,,
9766,No,2010,6,22,5,INDIA,IN,INDIA:  TAULI,29.872,80.428,60,,,,,,,
9373,No,2010,6,23,5,CANADA,CA,"CANADA:  QUEBEC:  VAL-DES-BOIS, GRACEFIELD",45.88,-75.48,150,,,,,,,
9767,No,2010,6,30,6,MEXICO,MX,MEXICO:  SAN ANDRES HUAXPALTEPEC,16.396,-97.782,150,1,,,,,,
9412,No,2010,7,20,6,IRAN, IR,IRAN:  FARSINAJ,27.022,53.861,140,1,,32,,,,
9432,No,2010,7,23,7,PHILIPPINES,PH,PHILIPPINES:  CELEBES SEA:  MORO GULF,6.486,123.467,170,,,,,,,
9769,No,2010,7,30,5,IRAN, IR,IRAN:  TORBET-I-HEYDARIYEH,35.217,59.308,140,,,274,,,,
9452,Yes,2010,8,10,7,VANUATU,VU,VANUATU ISLANDS,-17.541,168.069,170,,,,,,,
9770,No,2010,8,12,7,ECUADOR,EC,"ECUADOR:  MANTA, GUAYAQUIL, LOJA",-1.266,-77.306,160,,,,,,,
9612,Yes,2010,8,13,7,USA TERRITORY,US,"GUAM, NORTHERN MARIANA ISLANDS",12.484,141.476,170,,,,,,,
9472,No,2010,8,27,6,IRAN, IR,IRAN:  DAMGHAN-TORUD,35.49,54.47,140,3,,200,,700,,
9771,No,2010,8,29,5,CHINA,CN,"CHINA:  SICHUAN PROVINCE: NINGANG, ZIAOJIA",27.197,103.005,30,,,14,,,1001,
9492,No,2010,9,3,7,NEW ZEALAND,NZ,NEW ZEALAND:  CHRISTCHURCH,-43.522,171.83,170,,,2,6500,,,
9772,No,2010,9,6,5,NEW ZEALAND,NZ,NEW ZEALAND:  SOUTH ISLAND:  CHRISTCHURCH,-43.57,172.388,170,,,,,,,
9773,No,2010,9,6,5,NEW ZEALAND,NZ,NEW ZEALAND:  NORTH ISLAND:  PORANGAHAU,-40.433,176.818,170,,,,,,,
9774,No,2010,9,7,5,NEW ZEALAND,NZ,NEW ZEALAND:  SOUTH ISLAND:  CANTERBURY,-43.598,172.69,170,,,,,,,
9775,No,2010,9,10,5,BANGLADESH,BD,BANGLADESH:  NARAYANGANJ,23.407,90.648,60,,,,,,,
9552,No,2010,9,27,6,IRAN, IR,IRAN:  SHIRAZ,29.647,51.665,140,1,,3,,,,
9777,No,2010,10,10,5,PAKISTAN,PK,"PAKISTAN:  KHANPUR, HARIPUR",33.869,72.887,60,1,,15,,,100,
9592,Yes,2010,10,25,8,INDONESIA,ID,INDONESIA:  SUMATRA,-3.487,100.082,60,431,,,39,700,,
9632,No,2010,11,3,5,SERBIA,RS,BALKANS NW: SERBIA:  KRALJEVO,43.76,20.673,130,2,,100,,1000,5000,
9803,No,2010,11,6,5,IRAN, IR,IRAN:  DORUD-RAZAN,33.37,48.94,140,,,104,,,,
9825,No,2010,11,12,5,PAKISTAN,PK,PAKISTAN:  QUETTA,30.178,67.117,60,,,12,,,,
9827,No,2010,12,16,5,ETHIOPIA,ET,"ETHIOPIA:  JIMA,  HOSA'INA, SHENK'OLA, WENJELA",7.521,37.839,10,,,,,,,
9826,No,2010,12,19,4,USA,US,OKLAHOMA:  LUTHER,35.827,-96.772,150,,,,,,,
9760,No,2010,12,20,6,IRAN, IR,IRAN:  KERMAN,28.412,59.18,140,7,,25,,,1800,
9759,Yes,2010,12,21,7,JAPAN,JP,JAPAN:  BONIN ISLANDS,26.901,143.698,30,,,,,,,
9761,Yes,2010,12,25,7,VANUATU,VU,VANUATU ISLANDS,-19.702,167.947,170,,,4,,,,
9828,No,2010,12,25,4,NEW ZEALAND,NZ,NEW ZEALAND:  CHRISTCHURCH,-43.55,172.647,170,,,,,,20,
9762,No,2011,1,5,4,IRAN, IR,IRAN:  FARS PROVINCE,30.16,51.62,140,,,16,,,,
9811,Yes,2011,1,9,6,VANUATU,VU,VANUATU ISLANDS,-19.157,168.311,170,,,,,,,
9763,No,2011,1,18,7,PAKISTAN,PK,"PAKISTAN: GARHI KHAIRO, QUETTA, BALOCHISTAN",28.777,63.951,60,3,,,,,200,
9830,No,2011,2,1,5,CHINA,CN,CHINA:  YUNNAN PROVINCE:  PINGYUAN,24.693,97.943,30,,,1,,,700,
9831,No,2011,2,4,6,MYANMAR (BURMA),MM,MYANMAR (BURMA):  MONYWA,24.618,94.68,60,1,,,,,,
9776,Yes,2011,2,11,7,CHILE,CL,CHILE:  OFF COAST CENTRAL,-36.474,-73.125,160,,,,,,,
9832,No,2011,2,17,3,USA,US,COLORADO:  PAONIA,38.947,-107.497,150,,,,,,,
9779,Yes,2011,2,21,6,NEW ZEALAND,NZ,"NEW ZEALAND:  CHRISTCHURCH, LYTTELTON",-43.583,172.68,170,181,,1500,15000,100000,,
9835,No,2011,3,3,5,PHILIPPINES,PH,PHILIPPINES:  MINDANAO,9.457,125.935,170,,,,,,,
9797,Yes,2011,3,9,7,JAPAN,JP,JAPAN:  HONSHU:  E COAST,38.435,142.842,30,,,,,,,
9836,No,2011,3,10,5,CHINA,CN,CHINA:  YUNNAN PROVINCE:  PINGYUAN,24.719,97.969,30,25,,250,,1039,12528,
9799,Yes,2011,3,11,9,JAPAN,JP,JAPAN:  HONSHU,38.297,142.372,30,18431,,6157,220085.456,123661,280920,
9805,No,2011,3,11,8,JAPAN,JP,JAPAN:  NEAR E COAST HONSHU,36.281,141.111,30,,,,,,,
9806,No,2011,3,11,8,JAPAN,JP,JAPAN:  OFF EAST COAST HONSHU,38.058,144.59,30,,,,,,,
9801,No,2011,3,24,7,MYANMAR (BURMA),MM,MYANMAR:  TACHILEK,20.687,99.822,60,75,,123,3.6,,10104,
9848,No,2011,4,4,5,NEPAL,NP,"NEPAL-INDIA:  UTTARAKHAND, UTTAR PRADESH",29.698,80.754,60,,,,,,,
9804,Yes,2011,4,7,7,JAPAN,JP,JAPAN: NEAR E COAST HONSHU,38.276,141.588,30,3,,132,,,,
9847,No,2011,4,10,5,CHINA,CN,CHINA:  SICHUAN PROVINCE:  LUHUO,31.373,100.757,30,,,,,,,
9841,No,2011,4,11,6,JAPAN,JP,JAPAN:  HONSHU,37.001,140.401,30,7,,,,3,,
9864,No,2011,4,24,6,INDONESIA,ID,INDONESIA:   SULAWESI:  KENDARI,-4.586,122.771,170,,,14,,,,
10440,Yes,2011,5,10,7,NEW CALEDONIA,NC,NEW CALEDONIA:  LOYALTY ISLANDS,-20.244,168.226,170,,,,,,,
9821,No,2011,5,11,5,SPAIN,ES,SPAIN:  LORCA,37.699,-1.672,130,10,,,,,,
9833,No,2011,5,19,4,TURKEY,TR,TURKEY:  SIMAV,39.12,29.04,140,2,,125,,,,
9857,No,2011,6,8,5,CHINA,CN,CHINA:  XINJIANG PROVINCE:  DABANCHENG,43.015,88.247,40,,,8,,,50,
9858,No,2011,6,13,6,NEW ZEALAND,NZ,NEW ZEALAND:  SOUTH ISLAND:  CANTERBURY,-43.564,172.743,170,1,,45,3000,100,,
9859,No,2011,6,20,5,CHINA,CN,CHINA:  YUNNAN PROVINCE:  BAOSHAN,25.075,98.721,30,,,4,,,,
9824,Yes,2011,6,24,7,USA,US,ALASKA: ALEUTIAN ISLANDS: FOX ISLANDS,52.05,-171.836,150,,,,,,,
9860,No,2011,6,26,5,CHINA,CN,CHINA:  QINGHAI PROVINCE,32.447,95.948,40,,,,,10,,
9822,Yes,2011,7,6,7,KERMADEC ISLANDS (NEW ZEALAND),NZ,NEW ZEALAND: KERMADEC ISLANDS,-29.539,-176.34,170,,,,,,,
9823,Yes,2011,7,10,7,JAPAN,JP,JAPAN:  HONSHU:  E COAST,38.034,143.264,30,,,,,,,
9829,No,2011,7,19,6,UZBEKISTAN,UZ,"UZBEKISTAN:  FARGONA, VIOLYATI",40.081,71.41,40,14,,86,,,,
9862,No,2011,8,9,5,CHINA,CN,CHINA: YUNNAN PROVINCE: BAOSHAN,24.932,98.73,30,,,3,,,22823,
9872,No,2011,8,11,6,CHINA,CN,"CHINA:  XINJIANG PROVINCE:  SOUTHERN, KASHI",39.955,77.028,40,,,21,,,,
9838,Yes,2011,8,20,7,VANUATU,VU,VANUATU ISLANDS,-18.365,168.143,170,,,,,,,
9837,Yes,2011,8,20,7,VANUATU,VU,VANUATU ISLANDS,-18.311,168.218,170,,,,,,,
9873,No,2011,8,23,5,USA,US,COLORADO:  SEGUNDO,37.063,-104.701,150,,,,,,,
9861,No,2011,8,23,6,USA,US,"VIRGINIA:  LOUISA COUNTY, MARYLAND, WASHINGTON D.C.",37.936,-77.933,150,,,,,,,
9839,Yes,2011,9,2,7,USA,US,ALASKA:  ALEUTIAN ISLANDS:  FOX ISLANDS,52.171,-171.708,150,,,,,,,
9840,No,2011,9,5,6,INDONESIA,ID,INDONESIA:  SUMATRA,2.965,97.893,60,10,,,,,,
9874,No,2011,9,7,4,INDIA,IN,INDIA:  DELHI,28.724,77.189,60,,,1,,,,
9842,No,2011,9,18,7,INDIA,IN,INDIA:  SIKKIM,27.73,88.155,60,111,,177,22.3,,6000,
9843,No,2011,9,19,5,GUATEMALA,GT,GUATEMALA:  CUILAPA SANTA ROSA,14.186,-90.238,100,1,,,,,,
9875,No,2011,10,20,5,INDIA,IN,INDIA:  GUJARAT,21.211,70.533,60,,,34,,,3000,
9846,Yes,2011,10,21,7,KERMADEC ISLANDS (NEW ZEALAND),NZ,KERMADEC ISLANDS,-28.993,-176.238,170,,,,,,,
9845,No,2011,10,23,7,TURKEY,TR,"TURKEY:  ERCIS, VAN",38.722,43.513,140,604,,2608,1500,5739,4882,
9886,No,2011,10,28,7,PERU,PE,PERU:  SAN VICENTE DE CANETE,-14.438,-75.966,160,1,,103,,134,,
9887,No,2011,10,29,3,INDIA,IN,INDIA:  SIKKIM,27.449,88.684,60,2,,,,,,
9888,No,2011,10,29,4,ECUADOR,EC,ECUADOR:  POMASQUI,-0.13,-78.37,160,,,,,,,
9849,No,2011,11,1,5,CHINA,CN,CHINA:  XINJIANG PROVINCE,43.648,82.437,40,,,,10.5,2453,,
9850,No,2011,11,6,5,USA,US,OKLAHOMA:  SPARKS,35.532,-96.765,150,,,2,,14,,
9851,No,2011,11,7,5,PHILIPPINES,PH,PHILIPPINES:  MINDANAO:  BUKIDNON PROVINCE,7.904,125.185,170,,,31,,,23,
9889,No,2011,11,8,5,USA,US,"OKLAHOMA:  SPARKS, PRAGUE",35.531,-96.788,150,,,,,,,
9852,No,2011,11,9,6,TURKEY,TR,TURKEY:  VAN,38.429,43.229,140,40,,,,,,
9890,No,2011,11,21,6,INDIA,IN,INDIA:  ASSAM,24.955,95.236,60,,,,,,,
9863,No,2011,11,24,5,EL SALVADOR,SV,EL SALVADOR-GUATEMALA,13.297,-87.898,100,,,,,,80,
9891,No,2011,12,1,5,CHINA,CN,"CHINA:  XINJIANG PROVINCE:  SOUTHERN, KASHI",38.31,76.888,40,,,,,,300,
9854,No,2011,12,3,5,NEW ZEALAND,NZ,NEW ZEALAND:  COOK STRAIT,-41.364,174.315,170,,,,,,,
9853,No,2011,12,11,6,MEXICO,MX,MEXICO:  GUERRERO,17.844,-99.963,150,2,,5,,,70,
9855,No,2011,12,23,6,NEW ZEALAND,NZ,NEW ZEALAND:  SOUTH ISLAND:  CHRISTCHURCH,-43.49,172.8,170,,,60,,,,
9856,No,2011,12,27,6,RUSSIA,RU,RUSSIA:  KYZYL,51.842,95.911,40,,,,,,,
9866,No,2012,1,19,5,IRAN, IR,IRAN:  KHORASAN-E-RAZAVI,36.288,58.835,140,,,238,,,,
9867,No,2012,1,30,6,PERU,PE,PERU:  ICA,-14.168,-75.635,160,,,119,,,,
9871,Yes,2012,2,2,7,VANUATU,VU,VANUATU ISLANDS,-17.827,167.133,170,,,,,,,
9870,No,2012,2,6,7,PHILIPPINES,PH,PHILIPPINES:  NEGROS ORIENTAL PROVINCE,9.999,123.206,170,51,62,112,15,15000,,
9904,No,2012,2,26,6,TAIWAN,TW,TAIWAN:  PINGTUNG,22.661,120.891,30,,,,,,,
9903,No,2012,2,27,5,IRAN, IR,IRAN:  RAVAR,31.428,56.778,140,,,6,,,,
9905,No,2012,3,5,5,PHILIPPINES,PH,PHILIPPINES:  MASBATE ISLAND,12.354,123.7,170,,,10,,1,,
10413,Yes,2012,3,9,6,VANUATU,VU,VANUATU ISLANDS,-19.125,169.613,170,,,,,,,
9878,Yes,2012,3,14,7,JAPAN,JP,JAPAN:  HOKKAIDO,40.887,144.944,30,,,,,,,
9877,No,2012,3,16,6,PHILIPPINES,PH,PHILIPPINES:  SURIGAO,10.037,125.633,170,,,55,,4,,
9876,Yes,2012,3,20,7,MEXICO,MX,"MEXICO:  GUERRERO, OAXACA",16.493,-98.231,150,2,,13,,800,,
9920,No,2012,3,25,7,CHILE,CL,"CHILE:  PARRAL, SANTIAGO",-35.2,-72.217,160,1,,14,,,,
9879,Yes,2012,4,11,8,INDONESIA,ID,INDONESIA:  N SUMATRA:  OFF WEST COAST,2.327,93.063,60,10,,12,,,,
9880,Yes,2012,4,11,8,INDONESIA,ID,INDONESIA:  N SUMATRA:  OFF WEST COAST,0.802,92.463,60,,,,,,,
9885,Yes,2012,4,14,6,VANUATU,VU,VANUATU ISLANDS,-18.972,168.741,170,,,,,,,
9884,No,2012,4,17,7,CHILE,CL,CHILE:  VALPARAISO,-32.625,-71.365,160,2,,,,,,
9893,No,2012,5,3,5,IRAN, IR,"IRAN:  MOURMOURI, ABDANAN, DEHLORAN",32.747,47.726,140,,,8,,,,
9894,No,2012,5,7,6,AZERBAIJAN,AZ,AZERBAIJAN:  ZAGATALA,41.549,46.789,40,,,50,,3100,,
9930,No,2012,5,11,5,INDIA,IN,"INDIA:  ASSAM:  KAMRUP, GUWAHATI",26.175,92.889,60,,,2,,,,
9931,No,2012,5,12,6,TAJIKISTAN,TJ,TAJIKISTAN,38.612,70.354,40,1,,,,,,
9932,No,2012,5,14,6,CHILE,CL,CHILE:  ARICA; PERU:  TACNA,-17.678,-69.591,160,,,,,,,
9933,No,2012,5,19,4,BRAZIL,BR,BRAZIL:  MONTES CLAROS,-16.764,-43.999,160,,,,,,6,
9902,No,2012,5,20,6,ITALY,IT,ITALY:  EMILIA ROMAGNA:  MIRANDOLA,44.89,11.23,130,7,,50,,,,
9948,No,2012,5,20,5,ITALY,IT,ITALY:  SANT'AGOSTINO,44.831,11.49,130,,,,,,,
9906,No,2012,5,22,5,BULGARIA,BG,BULGARIA: PERNIK,42.645,22.968,110,,,,,,90,
9901,No,2012,5,29,6,ITALY,IT,"ITALY:  EMILIA ROMAGNA:  MEDOLLA, MIRANDOLA, CAVEZZO",44.851,11.086,130,17,,350,15800,,,
9909,No,2012,6,4,5,INDONESIA,ID,INDONESIA:  JAVA,-7.692,106.371,60,,,2,,,23,
9921,No,2012,6,10,6,TURKEY,TR,TURKEY:  FETHIYE; GREECE:  RHODES,36.42,28.88,140,,,6,,,,
9922,No,2012,6,11,6,AFGHANISTAN,AF,AFGHANISTAN:  HINDU KUSH,36.023,69.351,40,75,,13,,143,593,
9949,No,2012,6,14,5,TURKEY,TR,TURKEY:  SIRNAK,37.294,42.325,140,,,23,,,25,
9919,No,2012,6,24,5,CHINA,CN,CHINA:  YUNNAN AND SICHUAN PROVINCES,27.767,100.781,30,4,,394,,6768,,
9924,No,2012,6,29,6,CHINA,CN,CHINA:  XINJIANG PROVINCE,43.433,84.7,40,,,52,68,,30000,
9950,No,2012,7,20,5,CHINA,CN,CHINA:  JIANGSU PROVINCE,32.978,119.593,30,1,,2,,,,
9951,No,2012,7,25,6,INDONESIA,ID,INDONESIA: BANDA ACEH,2.707,96.045,60,1,,,,,20,
9926,No,2012,7,25,6,SOLOMON ISLANDS,SB,SOLOMON ISLANDS: GUADALCANAL,-9.694,159.727,170,,,,,26,,
9928,No,2012,8,11,6,IRAN, IR,"IRAN:  AHAR, HARIS, VARZAGAN",38.329,46.826,140,306,,3000,,,,
9929,No,2012,8,14,7,RUSSIA,RU,RUSSIA:  SAKHALIN ISLAND,49.8,145.064,50,,,,,,,
9938,No,2012,8,18,6,INDONESIA,ID,"INDONESIA:  SULAWESI:  SIGI, PARIGI MOUNTONG",-1.315,120.096,170,6,,43,,471,1097,
9934,Yes,2012,8,27,7,NICARAGUA,NI,NICARAGUA:  OFF THE COAST,12.139,-88.59,100,,,,,,,
9935,Yes,2012,8,31,7,PHILIPPINES,PH,"PHILIPPINES:  CAGAYAN DE ORO, TACLOBAN",10.811,126.638,170,1,,1,0.3,,,
9936,Yes,2012,9,5,7,COSTA RICA,CR,COSTA RICA:  NICOYA,10.085,-85.315,100,2,,20,,,,
9937,No,2012,9,7,5,CHINA,CN,CHINA: YUNNAN PROVINCE:  ZHAOTONG:  YILIANG,27.575,103.983,30,81,,821,1000,37000,133000,
9968,No,2012,10,18,5,INDIA,IN,"INDIA:  DEURALA, JAISINGHNAGAR, KOTMA, SARAI, UMARIA",23.739,81.314,60,,,,,,1,
9941,Yes,2012,10,28,7,CANADA,CA,CANADA:  QUEEN CHARLOTTE ISLANDS,52.788,-132.101,150,1,,,,,,
9942,Yes,2012,11,7,7,GUATEMALA,GT,"GUATEMALA:  SAN MARCOS, SAN CRISTOBAL COCHU",13.988,-91.895,100,48,,155,,2769,7561,
9943,No,2012,11,11,7,MYANMAR (BURMA),MM,MYANMAR (BURMA):  SHWEBO,23.005,95.885,60,26,,230,,251,,
9944,No,2012,11,26,5,CHINA,CN,CHINA:  XINJIANG PROVINCE:  RUOQIANG,40.411,90.355,40,,,,,,,
9945,No,2012,12,5,6,IRAN, IR,IRAN:  KHORASAN PROVINCE,33.506,59.571,140,8,,12,,,,
9946,Yes,2012,12,7,7,JAPAN,JP,JAPAN:  HONSHU:  MIYAGI PREFECTURE,37.89,143.949,30,,,11,,,,
9953,Yes,2013,1,5,7,USA,US,ALASKA:  SOUTHEASTERN,55.393,-134.652,150,,,,,,,
9957,No,2013,1,21,6,INDONESIA,ID,INDONESIA:  SUMATERA:  N,4.927,95.907,60,1,,15,,,71,
9958,Yes,2013,2,6,8,SOLOMON ISLANDS,SB,SOLOMON ISLANDS:  SANTA CRUZ ISLANDS,-10.799,165.114,170,10,,15,2,588,478,
9963,Yes,2013,2,8,7,SOLOMON ISLANDS,SB,SOLOMON ISLANDS:  SANTA CRUZ ISLANDS,-10.928,166.018,170,,,,,,,
9964,No,2013,2,9,7,COLOMBIA,CO,"COLOMBIA:  CAUCA, NARINO, VALLE DEL CAUCA, RISARALDA",1.135,-77.393,160,,,15,,100,1900,
9999,No,2013,2,15,4,RUSSIA,RU,RUSSIA:  CHELYABINSK (METEOR EXPLOSION),55.15,61.41,40,,,1000,,,4000,
9965,No,2013,2,19,5,CHINA,CN,CHINA:  YUNNAN PROVINCE:  QIAOJIA,27.226,103.071,30,,,8,,72,949,
9966,No,2013,2,22,5,PERU,PE,PERU:  S,-15.748,-71.425,160,,,,,,80,
9967,No,2013,3,3,5,CHINA,CN,CHINA:  YUNNAN PROVINCE,25.98,99.812,30,,,30,,700,2500,
10000,No,2013,3,11,5,CHINA,CN,CHINA:  XINJIAN PROVINCE:  S,40.119,77.466,40,,,,,864,,
9975,No,2013,3,27,6,TAIWAN,TW,"TAIWAN:  NANTOU COUNTY, TAIPEI",23.828,121.215,30,1,,86,1.128,,,
9974,No,2013,4,9,6,IRAN, IR,"IRAN:  BUSHEHR PROVINCE:  SHANBE, KAKI, SENA",28.428,51.593,140,37,,850,,,700,
10182,No,2013,4,10,5,HONDURAS,HN,HONDURAS: ATLANTIDA,15.52,-87.159,100,,,,,12,66,
9980,No,2013,4,12,6,JAPAN,JP,JAPAN,34.369,134.828,30,,,24,,,,
9976,No,2013,4,16,7,IRAN, IR,IRAN; PAKISTAN:  MASHKAL,28.033,61.996,140,40,,300,,,1000,
10035,No,2013,4,17,6,JAPAN,JP,JAPAN: MIYAKEJIMA,33.958,139.352,30,,,3,,,,
10036,No,2013,4,18,2,USA,US,TEXAS:  WEST,31.817,-97.088,150,14,,200,100,50,,
9977,Yes,2013,4,19,7,RUSSIA,RU,RUSSIA:  KURIL ISLANDS,46.221,150.788,50,,,,,,,
9978,No,2013,4,20,6,CHINA,CN,CHINA:  SICHUAN PROVINCE:  LONGMEN,30.308,102.888,30,196,21,11470,,,,
9983,No,2013,4,24,5,AFGHANISTAN,AF,AFGHANISTAN:  KAMA,34.526,70.22,40,18,,141,,,676,
9991,No,2013,5,1,6,INDIA,IN,"INDIA:  KASHMIR:  DODA, KISHTWAR, RAMBAN",33.061,75.863,60,3,,90,19.5,1136,95532,
9994,No,2013,5,11,6,IRAN, IR,IRAN:  HORMOZGAN: BASHAGARD,26.56,57.77,140,2,,20,,,,
10037,No,2013,5,19,5,ALGERIA,DZ,ALGERIA:  ALGIERS,36.703,5.261,15,,,5,,,,
9998,No,2013,5,24,8,RUSSIA,RU,RUSSIA:  SEVERO KURILSKIYE,54.892,153.221,50,,,,,,,
10003,No,2013,6,1,6,PHILIPPINES,PH,"PHILIPPINES:  N. COTABATO:  KIMADZIL, KIBUGTONGAN",7.275,124.898,170,,,33,,,164,
10002,No,2013,6,2,6,TAIWAN,TW,TAIWAN:  JENAI,23.789,121.141,30,4,,21,,,,
10007,No,2013,6,18,5,RUSSIA,RU,RUSSIA:  KEMEROVO,54.263,86.173,40,,,,,,500,
10006,No,2013,6,22,5,INDONESIA,ID,INDONESIA:  LOMBOK ISLAND,-8.305,116.058,60,,,50,,5370,1700,
10005,No,2013,7,2,6,INDONESIA,ID,INDONESIA:  BANDA ACEH,4.645,96.665,60,42,6,2500,,20401,,
10038,No,2013,7,8,5,INDONESIA,ID,INDONESIA:  JAVA,-8.803,113.002,60,,,1,,124,,
10034,No,2013,7,17,5,ALGERIA,DZ,ALGERIA:  HAMMAM MELOUANE,36.534,3.086,15,,,11,,,,
10021,Yes,2013,7,21,6,NEW ZEALAND,NZ,NEW ZEALAND:  COOK STRAIT,-41.704,174.337,170,,,5,,,35,
10018,No,2013,7,21,5,CHINA,CN,"CHINA:   GANSU:  DINGXI, MIN",34.512,104.262,30,94,5,1001,,1968,22496,
10295,No,2013,8,2,5,INDIA,IN,INDIA:  KASHMIR:  KISHTWAR,33.297,75.95,60,,,2,,,,
10033,No,2013,8,7,5,GREECE,GR,"GREECE:  CENTRAL:   PHTHIOTIS, REGGINI",38.689,22.695,130,,,,,100,,
10296,No,2013,8,11,5,CHINA,CN,CHINA:  TIBET (XIZANG PROVINCE): QAMDO,30.046,97.957,40,,,,,,,
10032,No,2013,8,16,6,NEW ZEALAND,NZ,"NEW ZEALAND:  WELLINGTON, MARLBOROUGH",-41.731,174.027,170,,,,,,,
10029,No,2013,8,21,6,MEXICO,MX,"MEXICO:  SAN MARCOS, ACAPULCO",16.878,-99.498,150,,,1,,,,
10297,No,2013,8,27,5,CHINA,CN,CHINA:  YUNNAN PROVINCE: SHANGRI-LA,28.239,99.328,30,,,,,36,36,
10031,No,2013,8,31,6,CHINA,CN,CHINA:  YUNNAN PROVINCE:  BENZILAN,28.243,99.35,30,5,,24,,600,55500,
10030,No,2013,9,7,6,GUATEMALA,GT,"GUATEMALA:  COATEPEQUE, QUETZALTENANGO",14.606,-92.121,100,1,,11,,3,,
10039,Yes,2013,9,24,7,PAKISTAN,PK,"PAKISTAN:  AWARAN, KECH",26.951,65.501,60,825,,619,,32638,14118,
10040,No,2013,9,25,7,PERU,PE,PERU:  AREQUIPA,-16.15,-74.87,160,,,,,,,
10043,No,2013,9,28,7,PAKISTAN,PK,PAKISTAN: AWARAN,27.183,65.505,60,22,,50,,,,
10049,No,2013,10,12,6,GREECE,GR,GREECE:  CRETE:  CHANIA,35.514,23.252,130,,,1,,,,
10048,No,2013,10,15,7,PHILIPPINES,PH,"PHILIPPINES:  BOHOL, CEBU, SIQUIJOR IS",9.88,124.117,170,222,8,976,51.8,,,
10050,No,2013,10,22,5,INDONESIA,ID,INDONESIA:  BANDA ACEH,5.103,95.971,60,1,,2,,,160,
10052,Yes,2013,10,25,7,JAPAN,JP,JAPAN:  HONSHU:  E COAST,37.2,144.6,30,,,1,,,,
10305,No,2013,11,10,5,TAJIKISTAN,TJ,TAJIKISTAN:  VAHDAT,38.41,68.89,40,,,,,104,256,
10054,Yes,2013,11,17,7,ANTARCTICA,AQ,SCOTIA SEA:  SOUTH ORKNEY ISLANDS,-60.274,-46.401,20,,,,,,,
10306,No,2013,11,22,5,CHINA,CN,CHINA:  JILIN PROVINCE:  SONGYUAN,44.599,124.168,30,,,,,,5300,
10056,No,2013,11,28,6,IRAN, IR,IRAN:  BORAZJAN,29.275,51.313,140,8,,200,,250,,
10059,No,2014,1,2,5,IRAN, IR,IRAN:  BASTAK,27.15,54.448,140,1,,30,,,,
10308,No,2014,1,5,5,COLOMBIA,CO,COLOMBIA:  SIPI,4.557,-76.644,160,,,,,,121,
10068,No,2014,1,13,6,USA TERRITORY,US,PUERTO RICO,19.043,-66.81,90,,,,,,,
10067,No,2014,1,20,6,NEW ZEALAND,NZ,"NEW ZEALAND: WELLINGTON, MANAWATU-WANGANUI",-40.66,175.814,170,,,,,,,
10070,No,2014,1,25,6,INDONESIA,ID,INDONESIA:  JAVA:  BANYUMAS,-7.986,109.265,60,,,,,1,,
10069,No,2014,1,26,6,GREECE,GR,GREECE:  KEFALONIA,38.208,20.453,130,,,6,178,,,
10072,No,2014,2,2,5,IRAN, IR,IRAN:  GOHARAN,26.589,57.741,140,,,,,,,
10071,No,2014,2,3,6,GREECE,GR,GREECE:  KEFALONIA:  LIXOURION,38.244,20.379,130,,,16,,,,
10309,No,2014,2,9,4,USA,US,OKLAHOMA:  GUTHRIE,35.937,-97.271,150,,,,,,,
10073,No,2014,2,12,7,CHINA,CN,CHINA:  XINJIANG PROVINCE:  YUTIAN,35.905,82.586,40,,,,,67,1001,
10074,No,2014,2,26,4,AUSTRALIA,AU,AUSTRALIA:  KALGOORLIE,-30.686,121.332,60,,,,,,,
10087,No,2014,3,13,6,JAPAN,JP,JAPAN:  SOUTHWESTERN,33.684,131.825,30,,,18,,,,
10075,Yes,2014,3,16,7,CHILE,CL,CHILE:  IQUIQUE,-19.965,-70.814,160,,,,,,,
10082,No,2014,3,29,5,USA,US,"CALIFORNIA:  LA HABRA, BREA, FULLERTON",33.863,-117.835,150,,,,10.8,,20,
10079,Yes,2014,4,1,8,CHILE,CL,"CHILE:  NORTHERN:  IQUIQUE, ALTO HOSPICIO",-19.61,-70.769,160,7,,,100,,2600,
10080,Yes,2014,4,3,7,CHILE,CL,CHILE:  NORTHERN:  IQUIQUE,-20.571,-70.493,160,,,,,,,
10081,No,2014,4,4,5,CHINA,CN,CHINA:  YUNNAN PROVINCE:  XILUODU,28.174,103.619,30,,,21,,75,2700,
10083,No,2014,4,10,6,NICARAGUA,NI,"NICARAGUA:  NAGAROTE, MANAGUA",12.403,-86.378,100,2,,250,3,168,2210,
10310,No,2014,4,11,7,PAPUA NEW GUINEA,PG,PAPUA NEW GUINEA:  BOUGAINVILLE ISLAND,-6.586,155.049,170,1,,,,51,,
10084,Yes,2014,4,12,7,SOLOMON ISLANDS,SB,SOLOMON ISLANDS,-11.27,162.148,170,,,,,,,
10085,Yes,2014,4,13,7,SOLOMON ISLANDS,SB,SOLOMON ISLANDS,-11.463,162.051,170,,,,,,,
10086,No,2014,4,14,5,NICARAGUA,NI,"NICARAGUA:  MANAGUA, CIUDAD SANDINO",12.151,-86.281,100,,,,,7,,
10088,Yes,2014,4,18,7,MEXICO,MX,MEXICO:  GUERRERO; MEXICO CITY,17.397,-100.972,150,,,,,,127,
10091,Yes,2014,4,19,7,PAPUA NEW GUINEA,PG,PAPUA NEW GUINEA:  SOLOMON SEA,-6.755,155.024,170,,,,,,,
10093,No,2014,5,5,6,THAILAND,TH,THAILAND:  CHIANG RAI,19.656,99.67,60,1,,32,62,20,,
10095,No,2014,5,8,6,MEXICO,MX,MEXICO:  TECPAN,17.235,-100.746,150,,,,,,,
10094,No,2014,5,8,4,PAKISTAN,PK,PAKISTAN:  NAWABSHAH,26.387,68.358,60,2,,70,,,,
10099,No,2014,5,17,3,GERMANY,DE,GERMANY:  HESSE,49.799,8.69,120,,,,1.36,,70,
10098,No,2014,5,19,5,ALBANIA,AL,ALBANIA:  BELSH,41.115,19.777,130,,,,,,,
10096,No,2014,5,24,7,GREECE,GR,"GREECE, TURKEY",40.24,25.33,130,3,,266,4500,,,
10097,No,2014,5,30,6,CHINA,CN,CHINA:  YUNNAN PROVINCE:  YINGJIANG,25,97.845,30,,,45,,3390,18000,
10101,Yes,2014,6,23,7,NEW ZEALAND,NZ,NEW ZEALAND:  SSE OF RAOUL ISLAND,-29.977,-177.725,170,,,,,,,
10100,Yes,2014,6,23,8,USA,US,ALASKA:  ALEUTIAN ISLANDS,51.849,178.735,150,,,,,,,
10102,No,2014,7,7,7,MEXICO,MX,MEXICO; GUATEMALA:  SAN MARCOS,14.728,-92.578,150,3,,33,,,50,
10105,Yes,2014,7,11,7,JAPAN,JP,JAPAN:  SANRIKU,37.005,142.453,30,,,3,,,,
10314,No,2014,7,15,4,USA,US,OKLAHOMA:  HARRAH,35.524,-97.146,150,,,,,,,
10107,Yes,2014,7,25,6,USA,US,ALASKA:  SOUTHEASTERN,58.306,-136.96,150,,,,,,,
10104,No,2014,7,29,6,MEXICO,MX,MEXICO:  OAXACA,17.682,-95.653,150,1,,1,,,,
10103,No,2014,8,1,5,ALGERIA,DZ,ALGERIA:  ALGIERS,36.841,3.301,15,6,,420,,,,
10106,No,2014,8,3,6,CHINA,CN,"CHINA:  YUNNAN:  LUDIAN:   LONGTOUSHAN, ZHAOTONG",27.189,103.409,30,615,114,3143,,25800,160400,
10109,No,2014,8,5,5,SOUTH AFRICA,ZA,SOUTH AFRICA:  ORKNEY,-26.99,26.705,10,1,,17,,13,1433,
10113,No,2014,8,12,5,ECUADOR,EC,ECUADOR:  QUITO,-0.018,-78.322,160,2,,8,,,89,
10112,No,2014,8,16,5,CHINA,CN,CHINA:  YUNNAN PROVINCE:  YONGSHAN,28.125,103.546,30,,,6,,,337,
10111,No,2014,8,18,6,IRAN, IR,IRAN:  ILAM PROVINCE:  ABDANAN,32.663,47.673,140,,,330,,2700,17000,
10110,No,2014,8,24,6,USA,US,"CALIFORNIA:  NAPA, VALLEJO",38.216,-122.312,150,1,,257,700,160,1034,
10117,No,2014,9,20,5,PHILIPPINES,PH,PHILIPPINES:  BARANGAY LUAYON,6.864,125.233,170,,,1,,15,67,
10118,No,2014,9,28,5,PERU,PE,PERU:  PARURO PROVINCE,-13.843,-71.695,160,8,,6,,106,,
10116,No,2014,10,7,6,CHINA,CN,CHINA:   YUNNAN PROVINCE:  YONGPING,23.383,100.47,30,1,,323,,,,
10115,Yes,2014,10,9,7,CHILE,CL,CHILE: EASTER ISLAND REGION,-32.108,-110.811,160,,,,,,,
10193,Yes,2014,10,14,7,EL SALVADOR,SV,EL SALVADOR:  GULF OF FONSECA,12.526,-88.123,100,1,,,,5,41,
10119,Yes,2014,11,15,7,INDONESIA,ID,INDONESIA:  N. MOLUCCAS ISLANDS,1.893,126.522,170,,,,,,,
10121,No,2014,11,22,6,CHINA,CN,CHINA:  SICHUAN PROVINCE:  GARZE,30.34,101.737,30,5,,65,,30,27400,
10122,No,2014,11,22,6,JAPAN,JP,"JAPAN:  NAGANO:  HAKUBA, OTARI",36.641,137.888,30,,,45,,50,,
10128,No,2014,12,6,5,CHINA,CN,CHINA:  YUNNAN PROVINCE:  YONGPING,23.358,100.533,30,1,,15,,434,17000,
10315,No,2014,12,23,5,ALGERIA,DZ,ALGERIA:  BLIDA,36.492,3.025,15,,,,,,,
10320,No,2015,1,14,5,CHINA,CN,CHINA:  SICHUAN PROVINCE:  LESHAN,29.353,103.199,30,,,11,,,2000,
10131,Yes,2015,2,16,6,JAPAN,JP,JAPAN:  HONSHU,39.856,142.881,30,,,,,,,
10135,Yes,2015,2,19,6,VANUATU,VU,VANUATU ISLANDS,-16.431,168.148,170,,,,,,,
10127,No,2015,2,20,4,CHINA,CN,CHINA:  YUNNAN PROVINCE,23.01,101.755,30,,,,,,276,
10125,No,2015,2,22,5,CHINA,CN,CHINA:  XINJIANG PROVINCE:  SHAWAN,44.133,85.568,40,,,,14.65,,1728,
10124,No,2015,2,26,5,PAKISTAN,PK,PAKISTAN:  BATTAGRAM,34.671,73.278,60,,,5,,,2,
10321,No,2015,2,28,4,PERU,PE,PERU:  AREQUIPA:  CAYLLOMA:  CABANACONDE,-15.693,-71.934,160,,,,,64,500,
10335,No,2015,3,1,5,CHINA,CN,"CHINA:   YUNNAN PROVINCE:  CANGYUAN, GENGMA",23.5,98.9,30,,,39,,220,15800,
10137,No,2015,3,8,4,SERBIA,RS,BALKANS NW: SERBIA:  KOSJERIC,44.088,19.861,130,,,,,,100,
10336,No,2015,3,10,6,COLOMBIA,CO,"COLOMBIA:  ANTIOQUIA, SANTANDER",6.8,-73.01,160,,,,,180,2167,
10132,No,2015,3,14,4,CHINA,CN,CHINA:  ANHUI PROVINCE:  FUYANG,33.15,115.8,30,2,,13,,155,11079,
10133,Yes,2015,3,29,7,PAPUA NEW GUINEA,PG,PAPUA NEW GUINEA,-4.729,152.562,170,,,,,,,
10136,No,2015,4,20,6,TAIWAN,TW,TAIWAN:  TAIPEI,24.203,122.316,30,1,,1,,,19,
10134,No,2015,4,25,7,NEPAL,NP,NEPAL:   KATHMANDU; INDIA; CHINA; BANGLADESH,28.231,84.731,60,8200,366,17866,10000,299588,269107,
10140,Yes,2015,5,2,5,JAPAN,JP,JAPAN:  HONSHU:  S. OF,31.529,140.213,30,,,,,,,
10139,Yes,2015,5,5,7,PAPUA NEW GUINEA,PG,PAPUA NEW GUINEA,-5.462,151.875,170,,,,,,,
10141,No,2015,5,12,7,NEPAL,NP,NEPAL:   DOLAKHA,27.809,86.066,60,117,,2800,,,,
10143,No,2015,5,30,7,JAPAN,JP,JAPAN:  BONIN ISLANDS [CHICHIJIMA ISLAND],27.839,140.493,30,,,12,,,,
10151,No,2015,6,4,6,MALAYSIA,MY,"MALAYSIA:  SABAH:  LAHAD,DATU,KANAK",5.987,116.541,170,18,,,,,23,
10153,No,2015,6,28,5,INDIA,IN,INDIA:  KOKRAJHAR,26.638,90.41,60,,,2,,,,
10152,No,2015,7,3,6,CHINA,CN,CHINA:  S. XINJIANG:  HOTAN,37.6,78.2,40,3,,263,,3000,,
10338,No,2015,7,3,6,PHILIPPINES,PH,PHILIPPINES:  MINDANAO,10.169,125.891,170,1,,,,,,
10147,Yes,2015,7,10,6,SOLOMON ISLANDS,SB,SOLOMON ISLANDS,-9.307,158.403,170,,,,,,,
10146,Yes,2015,7,18,7,SOLOMON ISLANDS,SB,SOLOMON ISLANDS,-10.401,165.141,170,,,,,,,
10145,No,2015,7,24,5,PAKISTAN,PK,PAKISTAN:  ABBOTTABAD,33.856,73.193,60,3,,1,,3,,
10157,Yes,2015,7,27,7,USA,US,ALASKA,52.214,-169.399,150,,,,,,,
10149,No,2015,7,27,7,INDONESIA,ID,INDONESIA:  PAPUA,-2.629,138.528,170,1,,,,1,6,
10150,No,2015,7,29,6,PANAMA,PA,COLOMBIA-PANAMA:  COLOMBIA:  UNGUIA,8.231,-77.315,100,,,6,,,45,
10148,No,2015,8,7,6,RWANDA,RW,RWANDA:  BUKAVU,-2.141,28.897,10,3,,30,,,,
10341,No,2015,8,9,5,EL SALVADOR,SV,EL SALVADOR:  ALEGRIA,13.668,-88.478,100,,,4,,,92,
10156,Yes,2015,9,16,8,CHILE,CL,CHILE:  CENTRAL,-31.573,-71.674,160,15,1,14,600,2305,10044,
10158,No,2015,9,24,6,INDONESIA,ID,INDONESIA:  SORONG,-0.59,131.27,170,,,62,,,260,
10160,No,2015,10,17,6,ARGENTINA,AR,ARGENTINA:  GALPON,-25.442,-64.632,160,2,,30,,15,,
10159,No,2015,10,26,7,AFGHANISTAN,AF,AFGHANISTAN: HINDU KUSH,36.524,70.368,40,399,,1770,109,29230,79893,
10343,No,2015,11,4,6,INDONESIA,ID,INDONESIA:  EAST NUSA TENGGARA:  ALOR,-8.338,124.875,60,,,,9,,1468,
10161,No,2015,11,7,5,VENEZUELA,VE,VENEZUELA:  MERIDA,8.477,-71.365,160,1,,,,33,83,
10162,Yes,2015,11,11,7,CHILE,CL,CHILE:  LA SERENA,-29.439,-72.105,160,,,,,,,
10163,Yes,2015,11,13,6,JAPAN,JP,JAPAN:  KYUSYU ISLAND,31.001,128.873,30,,,,,,,
10164,Yes,2015,11,17,6,GREECE,GR,"GREECE:  LEFKADA, KEFALONIA, ITHACA",38.67,20.6,130,2,,4,,1,,
10344,No,2015,11,17,6,KYRGYZSTAN,KG,KYRGYZSTAN: OSH,40.376,73.204,40,,,,,200,800,
10441,Yes,2015,11,18,6,SOLOMON ISLANDS,SB,SOLOMON ISLANDS,-8.899,158.422,170,,,,,,,
10345,No,2015,11,22,5,VENEZUELA,VE,VENEZUELA:  MERIDA,8.48,-71.42,160,1,,3,,,6,
10166,No,2015,11,24,7,PERU,PE,PERU-BRAZIL,-10.77,-71.41,160,,,,,,,
10165,No,2015,11,24,7,PERU,PE,PERU-BRAZIL,-10.07,-70.98,160,,,,,,,
10168,No,2015,12,7,7,TAJIKISTAN,TJ,TAJIKISTAN,38.211,72.78,40,2,,,5,500,,
10350,No,2015,12,17,6,MEXICO,MX,MEXICO:  COCOTITLAN,15.802,-93.633,150,2,,,,,,
10169,No,2015,12,25,6,AFGHANISTAN,AF,AFGHANISTAN; PAKISTAN,36.494,71.126,40,4,,97,,,,
10170,No,2016,1,3,6,INDIA,IN,INDIA:  IMPAHL,24.804,93.651,60,13,,100,75,,,
10171,No,2016,1,16,5,INDONESIA,ID,"INDONESIA: MALUKU:  BURU, AMBALAU ISLAND",-3.873,127.229,170,1,,22,,,230,
10172,No,2016,1,24,7,USA,US,ALASKA:  KENAI,59.658,-153.452,150,,,,,4,,
10173,No,2016,1,25,6,MOROCCO,MA,MOROCCO:  MELILLA,35.649,-3.682,15,1,,26,,,,
10174,No,2016,2,5,6,TAIWAN,TW,TAIWAN:  TAINAN,22.97,120.46,30,117,,525,700,,,
10175,Yes,2016,3,2,7,INDONESIA,ID,INDONESIA: SUMATRA:,-4.952,94.33,60,,,,,,,
10186,No,2016,4,10,6,AFGHANISTAN,AF,AFGHANISTAN:  KHYBER PAKHTUNKHWA,36.473,71.131,40,6,,5,,,20,
10363,No,2016,4,13,7,MYANMAR (BURMA),MM,INDIA: ASSAM; BANGLADESH,23.094,94.865,60,2,,170,,,4,
10177,No,2016,4,15,7,JAPAN,JP,"JAPAN:  KUMAMOTO, OITA",32.791,130.754,30,50,,1500,20000,80000,,
10176,Yes,2016,4,16,8,ECUADOR,EC,"ECUADOR:  NEAR WEST COAST: MANABI, ESMERALDAS",0.35,-80.16,160,663,9,6274,3300,6998,29672,
10179,Yes,2016,4,28,7,VANUATU,VU,VANUATU ISLANDS,-16.043,167.379,170,,,,,,,
10178,No,2016,5,11,5,CHINA,CN,CHINA:  TIBET (XIZANG PROVINCE),32.022,95.027,40,,,60,,,,
10181,No,2016,5,18,7,ECUADOR,EC,ECUADOR:  MANABI PROVINCE,0.495,-79.616,160,1,,162,,,32,
10364,No,2016,5,28,5,ALGERIA,DZ,ALGERIA:  MEDEA:  MIHOUB,36.431,3.517,15,,,28,,,,
10365,No,2016,6,1,6,INDONESIA,ID,INDONESIA:  SUMATRA:  PESISIR SELATAN,-2.097,100.665,60,1,,30,,,2663,
10185,No,2016,6,7,6,INDONESIA,ID,INDONESIA:  MALUKU:  TERNATE ISLAND,1.279,126.371,170,,,,,,,
10187,No,2016,7,1,5,TAJIKISTAN,TJ,TAJIKISTAN:  RASHT,38.881,70.559,40,,,,,31,,
10188,No,2016,7,29,7,USA TERRITORY,US,NORTHERN MARIANA ISLANDS,18.543,145.507,170,,,,,,,
10366,No,2016,7,31,5,CHINA,CN,CHINA:  GUANGXI PROVINCE,24.134,111.478,30,,,,,,200,
10189,No,2016,7,31,5,INDONESIA,ID,INDONESIA:  SUMBAWA ISLAND:  WEST NUSA TENGGARA,-8.194,117.814,60,,,4,,,700,
10190,Yes,2016,8,12,7,NEW CALEDONIA,NC,NEW CALEDONIA:  LOYALTY ISLANDS,-22.477,173.117,170,,,,,,,
10191,No,2016,8,15,5,PERU,PE,PERU:  AREQUIPA,-15.64,-71.68,160,9,,68,,605,671,
10192,Yes,2016,8,19,7,SOUTH GEORGIA AND THE SOUTH SANDWICH ISLANDS,GS,SOUTH SANDWICH ISLANDS,-55.285,-31.877,70,,,,,,,
10481,Yes,2016,8,20,6,JAPAN,JP,JAPAN:  OFF EAST COAST HONSHU,40.394,143.68,30,,,,,,,
10194,No,2016,8,24,6,ITALY,IT,"ITALY:  ACCUMOLI, ARQUATA, AMATRICE",42.704,13.238,130,299,15,368,5000,,,
10195,No,2016,8,24,6,MYANMAR (BURMA),MM,MYANMAR (BURMA): CHAUK,20.923,94.569,60,4,,20,10,,230,
10196,Yes,2016,9,1,7,NEW ZEALAND,NZ,NEW ZEALAND:  GISBORNE,-37.359,179.146,170,,,,,,,
10197,No,2016,9,10,6,TANZANIA,TZ,TANZANIA:  LAKE VICTORIA;  UGANDA: RAKAI,-1.036,31.618,10,23,,252,458,1172,6281,
10198,No,2016,9,11,5,MACEDONIA,MK,BALKANS NW:  MACEDONIA,42.008,21.488,130,,,30,10,,,
10199,No,2016,9,12,5,SOUTH KOREA,KR,SOUTH KOREA:  GYEONGJU,35.781,129.216,30,1,,14,21,,106,
10228,No,2016,9,23,5,RWANDA,RW,RWANDA:  RISUZI; CONGO:  UKAVU,-2.65,29.06,10,8,,,,22,,
10373,No,2016,9,28,5,NICARAGUA,NI,NICARAGUA:  LEON,12.442,-86.515,100,1,,5,,6,487,
10229,No,2016,10,1,5,PAKISTAN,PK,"PAKISTAN:  MANSEHRA, NARAN",34.905,73.682,60,1,,,,,,
10200,No,2016,10,21,6,JAPAN,JP,JAPAN:  KURAYOSHI,35.374,133.809,30,,,7,100,2,160,
10201,No,2016,10,26,6,ITALY,IT,"ITALY:  VISSO, USSITA",42.956,13.067,130,1,,,,,1001,
10202,No,2016,10,30,6,ITALY,IT,ITALY: NORCIA,42.84,13.11,130,2,,20,200,,,
10204,No,2016,11,7,5,USA,US,OKLAHOMA:  CUSHING,35.988,-96.805,150,,,,20,,50,
10206,Yes,2016,11,13,7,NEW ZEALAND,NZ,NEW ZEALAND:  AMBERLEY,-42.737,173.054,170,2,,,3900,1,,
10209,Yes,2016,11,21,7,JAPAN,JP,JAPAN: NEAR E COAST HONSHU,37.393,141.387,30,,,15,,,,
10211,Yes,2016,11,24,7,NICARAGUA,NI,NICARAGUA,11.96,-88.835,100,,,,,,,
10386,No,2016,11,25,7,CHINA,CN,CHINA:  XINJIANG PROVINCE:  KASHGAR,39.273,73.978,40,1,,,5.5,,,
10230,No,2016,11,27,5,NEPAL,NP,"NEPAL:   MOUNT AMA DABLAM, CHARIKHARKA",27.802,86.532,40,1,,1,,2,,
10231,No,2016,11,29,4,POLAND,PL,POLAND:  RUDNA,51.613,16.157,120,8,,9,,,,
10379,No,2016,12,1,5,COSTA RICA,CR,"COSTA RICA:  PARAISO, TURRIALBA",9.949,-83.807,100,,,,,,60,
10232,No,2016,12,1,5,PERU,PE,"PERU:  PUNO, LAMPA",-15.44,-70.93,160,1,,17,,8,40,
10215,No,2016,12,6,6,INDONESIA,ID,INDONESIA:  SUMATRA:  ACEH:  PIDIE JAYA,5.283,96.168,60,104,,857,100,245,18752,
10380,No,2016,12,8,6,CHINA,CN,CHINA:  N. XINJIANG:  URUMQI,43.823,86.345,40,1,,,135,,,
10218,Yes,2016,12,8,8,SOLOMON ISLANDS,SB,SOLOMON ISLANDS,-10.681,161.327,170,1,,,,191,126,
10219,Yes,2016,12,9,7,SOLOMON ISLANDS,SB,SOLOMON ISLANDS,-10.749,161.132,170,,,,,,,
10220,Yes,2016,12,17,8,PAPUA NEW GUINEA,PG,PAPUA NEW GUINEA:  NEW BRITAIN NEW IRELAND,-4.505,153.522,170,,,,,,,
10221,No,2016,12,19,5,ECUADOR,EC,ECUADOR:  ESMERALDAS,0.93,-79.84,160,3,,47,,10,70,
10224,Yes,2016,12,25,7,CHILE,CL,CHILE,-43.517,-74.391,160,,,,,,,
10226,No,2017,1,3,5,INDIA,IN,INDIA:  AMBASA;  BANGLADESH,24.015,92.018,60,3,,,,,,
10225,Yes,2017,1,3,7,FIJI,FJ,FIJI ISLANDS,-19.373,176.052,170,,,,,,,
10227,No,2017,1,6,5,IRAN, IR,IRAN:  KHONJ,28.2,53.107,140,4,,4,,,,
10254,No,2017,1,11,5,MADAGASCAR,MG,MADAGASCAR: ANTSIRABE,-20.16,46.647,60,2,,,,,,
10234,No,2017,1,18,6,ITALY,IT,ITALY:  FARINDOLA,42.529,13.282,130,34,,11,18,,,
10235,Yes,2017,1,22,8,PAPUA NEW GUINEA,PG,PAPUA NEW GUINEA:  BOUGAINVILLE ISLAND,-6.246,155.172,170,3,,,,,,
10405,No,2017,2,6,5,TURKEY,TR,TURKEY:  CANAKKALE,39.599,26.065,140,,,5,,,90,
10403,No,2017,2,6,5,COLOMBIA,CO,COLOMBIA:  HUILA,3.449,-74.672,160,,,,,,378,
10237,No,2017,2,7,6,PAKISTAN,PK,PAKISTAN:  PASNI,25.191,63.264,60,,,,,20,,
10238,No,2017,2,10,6,PHILIPPINES,PH,PHILIPPINES: SURIGAO DEL NORTE,9.907,125.452,170,8,,202,40,215,3042,
10404,No,2017,2,24,6,ZAMBIA,ZM,ZAMBIA:  KAPUTA,-8.44,30.031,10,,,5,,,,
10316,No,2017,3,5,5,PHILIPPINES,PH,PHILIPPINES: SURIGAO DEL NORTE,9.831,125.496,170,1,,45,,13,,
10239,No,2017,3,13,5,MYANMAR (BURMA),MM,MYANMAR (BURMA):  THARRAWADDY,17.399,96,60,2,,36,,,,
10436,No,2017,3,21,5,INDONESIA,ID,INDONESIA:  BALI,-8.492,115.323,60,,,4,,,,
10468,No,2017,3,26,5,CHINA,CN,CHINA:   YUNNAN PROVINCE,25.938,99.841,30,,,1,31,,,
10240,No,2017,4,5,6,IRAN, IR,IRAN:  SEFID SANG,35.776,60.436,140,2,,11,,,,
10242,No,2017,4,8,6,PHILIPPINES,PH,"PHILIPPINES: BATANGAS, CALABARZON",13.77,120.935,170,,,6,,506,2108,
10241,No,2017,4,10,5,EL SALVADOR,SV,"EL SALVADOR: SAN SALVADOR,SOYAPANGO",13.766,-89.155,100,1,,3,,,,
10244,Yes,2017,4,24,7,CHILE,CL,CHILE:  VALPARAISO,-33.038,-72.062,160,,,,,,,
10245,Yes,2017,4,28,7,PHILIPPINES,PH,PHILIPPINES: SARANGANI,5.504,125.066,170,,,7,,1,,
10247,Yes,2017,5,1,6,CANADA,CA,ALASKA:  SKAGWAY; CANADA:  BRITISH COLUMBIA,59.852,-136.677,150,,,,,,,
10437,No,2017,5,3,6,TAJIKISTAN,TJ,"KYRGYZSTAN:  OSH, BATKEN",39.494,71.444,40,,,,,537,,
10248,No,2017,5,10,5,CHINA,CN,"CHINA: XINJIANG: QUZGUN, TAXKORGAN TAJIK",37.643,75.31,40,8,,23,123,3015,,
10438,No,2017,5,11,5,AZERBAIJAN,AZ,IRAN:  ARDABIL,39.816,48.57,40,,,20,,,85,
10249,No,2017,5,13,5,IRAN, IR,IRAN: KHORASAN,37.769,57.206,140,3,,400,,,,
10255,No,2017,5,25,4,TANZANIA,TZ,TANZANIA: MWANZA,-3.043,32.888,10,1,,18,,,,
10251,No,2017,5,28,5,TURKEY,TR,"TURKEY: MANISA: SARUHANLI, GOLMARMARA",38.764,27.778,140,,,,,,35,
10250,No,2017,5,29,6,INDONESIA,ID,INDONESIA:  SULAWESI:  POSO,-1.292,120.431,170,,,25,,5,348,
10252,Yes,2017,6,12,6,GREECE,GR,GREECE: LESBOS,38.93,26.365,130,1,,15,,10,250,
10253,No,2017,6,14,7,GUATEMALA,GT,"GUATEMALA: QUETZALTENANGO, SUCHITEPEQUEZ; MEXICO",14.909,-92.009,100,5,,30,,,,
10317,No,2017,6,21,3,NEPAL,NP,NEPAL:  DHADING,27.64,85.17,60,1,,1,,,,
10256,No,2017,6,22,7,GUATEMALA,GT,"GUATEMALA: ESCUINTLA, SUCHITEPEQUEZ, GUATEMALA",13.717,-90.972,100,,,4,,,53,
10257,No,2017,6,24,5,MOZAMBIQUE,MZ,MOZAMBIQUE,-19.45,34.488,10,,,4,,2,2,
10258,No,2017,7,6,6,PHILIPPINES,PH,PHILIPPINES: LEYTE,11.127,124.629,170,4,,448,5,735,1029,
10259,Yes,2017,7,17,7,RUSSIA,RU,RUSSIA: BERING ISLAND,54.443,168.857,50,,,,,,,
10284,No,2017,7,18,6,PERU,PE,PERU:  AREQUIPA,-16.416,-73.636,160,1,,1,,,,
10260,Yes,2017,7,20,6,TURKEY,TR,"TURKEY: BODRUM, DATCA; GREECE: KOS",36.929,27.414,140,2,,500,,,,
10318,No,2017,8,2,5,CHILE,CL,CHILE:  SANTIAGO,-33.201,-70.614,160,1,,,,,,
10261,No,2017,8,8,6,CHINA,CN,CHINA:  SICHUAN PROVINCE:  ABA,33.193,103.855,30,25,,525,500,100,72500,
10262,No,2017,8,8,5,CHINA,CN,CHINA:  XINGJIANG: BORTALA,44.302,82.832,40,,,32,,142,1060,
10283,No,2017,8,11,5,PERU,PE,PERU: AREQUIPA,-16.299,-73.474,160,1,,,,,,
10445,No,2017,8,13,6,PERU,PE,PERU:  JUNIN,-10.721,-74.566,160,1,,2,,,,
10263,No,2017,8,21,4,ITALY,IT,ITALY:  ISCHIA ISLAND,40.783,13.939,130,2,,42,,,,
10264,No,2017,8,22,5,PHILIPPINES,PH,PHILIPPINES: LEYTE: ORMOC,10.954,124.707,170,2,,,,,56,
10266,Yes,2017,9,8,8,MEXICO,MX,"MEXICO: OAXACA, CHIAPAS, TABASCO; GUATEMALA",14.761,-94.103,150,98,,251,4000,47468,94027,
10267,No,2017,9,19,7,MEXICO,MX,"MEXICO: MEXICO CITY, MORELOS, PUEBLA",18.339,-98.68,150,369,,6000,8000,226,184000,
10268,No,2017,9,23,6,MEXICO,MX,MEXICO:  OAXACA,16.626,-95.078,150,5,,7,,11,,
10269,No,2017,9,23,6,PHILIPPINES,PH,PHILIPPINES: MINDANAO: LANAO DEL SUR PROVINCE,7.562,124.743,170,,,11,,55,1659,
10272,Yes,2017,10,31,6,NEW CALEDONIA,NC,NEW CALEDONIA:  LOYALTY ISLANDS,-21.697,169.149,170,,,,,,,
10319,No,2017,10,31,6,INDONESIA,ID,INDONESIA:  MALUKU:  AMBON,-3.745,127.752,170,1,,,,,14,
10273,Yes,2017,11,1,6,NEW CALEDONIA,NC,NEW CALEDONIA:  LOYALTY ISLANDS,-21.648,168.859,170,,,,,,,
10275,No,2017,11,12,7,IRAN, IR,IRAN: KERMANSHAH; IRAQ: KURDISTAN,34.911,45.959,140,630,,12900,750,15500,14500,
10276,No,2017,11,13,6,COSTA RICA,CR,COSTA RICA: JACO,9.515,-84.487,100,2,,,,,,
10277,No,2017,11,15,5,SOUTH KOREA,KR,SOUTH KOREA: POHANG,36.074,129.27,30,,,90,52,,2000,
10473,No,2017,11,17,6,CHINA,CN,CHINA:  TIBET (XIZANG PROVINCE): NYINGCHI,29.833,94.984,40,,,2,,,3000,
10282,No,2017,11,18,5,INDONESIA,ID,INDONESIA: NORTH MALUKU: MOROTAI,2.465,128.148,170,1,,,,,294,
10442,Yes,2017,11,19,6,NEW CALEDONIA,NC,NEW CALEDONIA:  LOYALTY ISLANDS,-21.638,168.673,170,,,,,,,
10443,Yes,2017,11,19,6,NEW CALEDONIA,NC,NEW CALEDONIA:  LOYALTY ISLANDS,-21.503,168.598,170,,,,,,,
10281,Yes,2017,11,19,7,NEW CALEDONIA,NC,NEW CALEDONIA:  LOYALTY ISLANDS,-21.325,168.672,170,,,,,,,
10285,No,2017,11,23,5,CHINA,CN,CHINA: CHONGQING: WULONG,29.349,108.058,30,,,8,1.5,1,30,
10286,No,2017,12,1,6,IRAN, IR,IRAN:  KERMAN,30.765,57.331,140,,,51,,,,
10287,No,2017,12,15,6,INDONESIA,ID,INDONESIA:  JAVA,-7.734,108.023,60,4,,36,,,4825,
10288,No,2017,12,20,5,IRAN, IR,IRAN:  ALBORZ,35.654,50.949,140,2,,115,,,,
10289,No,2017,12,27,4,IRAN, IR,"IRAN: ALBORZ, TEHRAN",35.692,50.9,140,1,,57,,,,
10292,No,2018,1,4,5,MONTENEGRO,ME,BALKANS NW:  MONTENEGRO: BERANE,42.658,19.883,130,,,,,,,
10290,No,2018,1,6,5,IRAN, IR,IRAN:  KERMANSHAH,34.649,45.799,140,,,51,,,,
10293,No,2018,1,8,3,NETHERLANDS,NL,THE NETHERLANDS: GRONINGEN,53.2,6.6,120,,,,,,,
10291,Yes,2018,1,10,7,HONDURAS,HN,HONDURAS,17.474,-83.519,90,,,,,,7,
10294,No,2018,1,11,5,IRAN, IR,IRAN: KERMANSHAH,33.764,45.749,140,,,13,,,,
10298,No,2018,1,14,7,PERU,PE,PERU: YAUCA,-15.776,-74.744,160,2,,139,,259,1577,
10299,No,2018,1,23,6,INDONESIA,ID,INDONESIA:  JAVA:  BANTEN,-7.196,105.918,60,1,,11,,,2760,
10300,Yes,2018,1,23,8,USA,US,ALASKA:  KODIAK ISLAND,56.046,-149.073,150,,,,,,,
10301,No,2018,1,31,6,AFGHANISTAN,AF,AFGHANISTAN; PAKISTAN:  BALUCHISTAN,36.543,70.816,40,2,,15,,,,
10304,No,2018,1,31,5,ECUADOR,EC,ECUADOR:  PASTAZA,-1.756,-77.694,60,1,,,,,,
10302,No,2018,2,6,6,TAIWAN,TW,TAIWAN:  HUALIEN,24.174,121.653,30,17,,291,,4,,
10303,No,2018,2,16,7,MEXICO,MX,MEXICO:  OAXACA,16.646,-97.653,150,13,,,,,1000,
10307,No,2018,2,25,7,PAPUA NEW GUINEA,PG,"PAPUA NEW GUINEA: S HIGHLANDS, HELA;  INDONESIA",-6.068,142.768,170,145,,300,290,,,
10313,No,2018,2,28,6,PAPUA NEW GUINEA,PG,PAPUA NEW GUINEA:  S HIGHLANDS,-6.182,142.492,170,1,,,,,,
10312,No,2018,3,4,7,PAPUA NEW GUINEA,PG,PAPUA NEW GUINEA:  S HIGHLANDS,-6.307,142.62,170,11,,,,,,
10311,No,2018,3,6,7,PAPUA NEW GUINEA,PG,"PAPUA NEW GUINEA:  S HIGHLANDS, HELA",-6.294,142.607,170,25,,,,1,,
10322,No,2018,4,1,5,IRAN, IR,IRAN:  KERMANSHAH,34.456,45.764,140,,,54,,,,
10323,No,2018,4,3,5,VENEZUELA,VE,VENEZUELA:  MERIDA,8.346,-71.664,160,,,,,,28,
10325,No,2018,4,7,6,PAPUA NEW GUINEA,PG,PAPUA NEW GUINEA:  HELA,-5.841,142.49,170,4,,,,,,
10324,No,2018,4,8,5,JAPAN,JP,JAPAN:  SHIMANE PREFECTURE,35.262,132.541,30,,,8,,,429,
10326,No,2018,4,10,5,ITALY,IT,ITALY:  MUCCIA,43.093,13.046,130,,,,,,,
10327,No,2018,4,18,4,INDONESIA,ID,INDONESIA:  JAVA:  BANJARNEGARA,-7.21,109.65,60,3,,21,,,316,
10328,No,2018,4,24,5,TURKEY,TR,TURKEY:  ADIYAMAN,37.596,38.514,140,,,39,,,,
10329,No,2018,5,2,5,IRAN, IR,IRAN:  KOHGILUYEH AND BOYER-AHMAD: SISAKHT,30.715,51.485,140,,,133,,,,
10330,No,2018,5,3,2,SOUTH AFRICA,ZA,SOUTH AFRICA:  WEST RAND,-26.4,27.5,10,7,,6,,,,
10332,Yes,2018,5,4,7,USA,US,HAWAIIAN ISLANDS: PUNA DISTRICT,19.37,-155.032,150,,,1,370,716,,
10331,No,2018,5,5,4,POLAND,PL,POLAND:  SILESIAN:  JASTRZEBIE-ZDROJ,50.11,18.71,120,5,,2,,,,
10334,No,2018,5,6,5,EL SALVADOR,SV,"EL SALVADOR:  LA UNION, SAN MIGUEL",13.095,-88.099,100,,,1,,11,298,
10333,No,2018,5,9,6,AFGHANISTAN,AF,AFGHANISTAN: TAKHAR;  PAKISTAN,36.99,71.369,40,,,13,,,45,
10337,No,2018,5,15,6,COMOROS,KM,COMOROS:  MAYOTTE,-12.778,45.593,60,,,3,,,,
10339,No,2018,5,27,5,CHINA,CN,CHINA:  JILIN PROVINCE:  NINGJIANG,45.279,124.557,30,,,,,,10000,
10346,No,2018,6,5,5,AZERBAIJAN,AZ,AZERBAIJAN: SHAKI-ZAQATALA,41.526,46.785,40,1,,31,,,,
10340,No,2018,6,12,5,COLOMBIA,CO,COLOMBIA:  PASTO,1.032,-77.259,160,2,,,,1,,
10342,No,2018,6,17,5,JAPAN,JP,JAPAN:  OSAKA,34.833,135.612,30,5,,380,7000,,470,
10348,No,2018,7,21,5,INDONESIA,ID,INDONESIA: SUMATRA: SOLOK,-0.965,100.771,60,1,,2,,2,10,
10347,No,2018,7,22,6,IRAN, IR,IRAN:  KERMANSHAH,34.645,46.179,140,,,287,,,951,
10349,No,2018,7,28,6,INDONESIA,ID,INDONESIA:  LOMBOK ISLAND,-8.274,116.491,60,17,,355,,5448,,
10351,Yes,2018,8,5,7,INDONESIA,ID,INDONESIA:  LOMBOK ISLAND,-8.287,116.452,60,560,,7733,509,,83392,
10352,No,2018,8,9,6,INDONESIA,ID,INDONESIA:  LOMBOK ISLAND,-8.394,116.208,60,2,,24,,,,
10353,No,2018,8,12,5,CHINA,CN,CHINA:   YUNNAN PROVINCE:  YUXI,24.322,102.941,30,,,24,,,6000,
10356,Yes,2018,8,19,8,FIJI,FJ,FIJI ISLANDS,-18.178,-178.111,170,,,,,,,
10354,No,2018,8,19,6,INDONESIA,ID,INDONESIA:  LOMBOK ISLAND,-8.325,116.577,60,2,,1,,,1705,
10355,No,2018,8,19,7,INDONESIA,ID,INDONESIA:  LOMBOK ISLAND,-8.324,116.626,60,10,,24,,,151,
10357,Yes,2018,8,21,7,VENEZUELA,VE,VENEZUELA:  SUCRE; TRINIDAD,10.855,-62.883,90,5,,,,,,
10358,No,2018,8,25,6,IRAN, IR,IRAN:  KERMANSHAH,34.663,46.277,140,2,,267,,,2600,
10359,Yes,2018,8,29,7,NEW CALEDONIA,NC,NEW CALEDONIA:  LOYALTY ISLANDS,-22.066,170.05,170,,,,,,,
10360,No,2018,9,5,6,JAPAN,JP,JAPAN:  HOKKAIDO,42.671,141.933,30,44,,660,2000,,,
10361,No,2018,9,6,8,FIJI,FJ,FIJI ISLANDS,-18.494,179.332,170,,,,,,,
10362,No,2018,9,7,5,IRAN, IR,IRAN:  KERMAN,28.342,59.315,140,1,,2,,,,
10368,No,2018,9,8,5,CHINA,CN,CHINA: YUNNAN PROVINCE:  MOJIANG HANI,23.332,101.552,30,,,28,,,29000,
10367,No,2018,9,12,5,INDIA,IN,INDIA:  WEST BENGAL,26.374,90.165,60,1,,,,,,
10369,Yes,2018,9,28,7,INDONESIA,ID,INDONESIA:  SULAWESI,-0.178,119.84,170,4340,667,10679,1500,5864,69483,
10370,No,2018,10,7,6,HAITI,HT,HAITI: PORT-DEX-PAIX,20.041,-72.975,90,18,,580,,,11497,
10371,No,2018,10,10,6,INDONESIA,ID,"INDONESIA:  MADURA ISLAND, JAVA",-7.456,114.453,60,4,,36,,,433,
10444,Yes,2018,10,16,6,NEW CALEDONIA,NC,NEW CALEDONIA:  LOYALTY ISLANDS,-21.743,169.522,170,,,,,,,
10372,Yes,2018,10,25,7,GREECE,GR,"GREECE:  IONIAN SEA:  ZAKYNTHOS, STROFADES",37.506,20.563,130,,,3,,,,
10374,No,2018,11,14,6,INDONESIA,ID,INDONESIA:  SULAWESI:  MAMASA,-2.916,119.435,170,7,,,,,,
10375,No,2018,11,25,6,IRAN, IR,IRAN: KERMANSHAH; IRAQ: KURDISTAN,34.304,45.74,140,1,,759,,,,
10377,No,2018,11,28,5,AFGHANISTAN,AF,AFGHANISTAN:  HINDU KUSH:  BAGHLAN,35.817,68.682,40,,,9,,,60,
10376,No,2018,11,30,7,USA,US,ALASKA:  ANCHORAGE,61.34,-149.937,150,,,117,150,2,1650,
10378,Yes,2018,12,5,7,NEW CALEDONIA,NC,NEW CALEDONIA:  LOYALTY ISLANDS,-21.969,169.446,170,,,,,,,
10382,No,2018,12,15,5,VANUATU,VU,VANUATU ISLANDS: AMBRYM ISLAND,-16.368,168.213,170,,,,,,,
10381,No,2018,12,16,5,CHINA,CN,CHINA:  SICHUAN:  YIBIN,28.264,104.991,30,,,17,7.255,15,6145,
10384,No,2018,12,22,5,MOZAMBIQUE,MZ,MOZAMBIQUE,-20.644,32.801,10,,,10,,600,,
10383,No,2018,12,26,5,ITALY,IT,ITALY:  SICILY:  CATANIA,37.555,15.166,130,,,28,115,15,,
10385,No,2019,1,3,5,CHINA,CN,CHINA:  SICHUAN:  YIBIN,28.261,104.984,30,,,774,,,691,
10389,No,2019,1,6,5,IRAN, IR,IRAN:  KERMANSHAH: SARPOL-E ZAHAB,34.121,45.681,140,,,75,,,,
10387,No,2019,1,12,4,POLAND,PL,POLAND:  RUDNA,51.52,16.09,120,1,,6,,,,
10388,No,2019,1,20,6,CHILE,CL,"CHILE:  COQUIMBO, LA SERENA",-30.074,-71.423,160,2,,,,,260,
10390,No,2019,1,22,3,POLAND,PL,POLAND:  RYDULTOWY,50.08,18.39,120,1,,8,,,,
10479,No,2019,1,26,5,COLOMBIA,CO,"COLOMBIA:  CAUCA, HUILA",3.035,-75.738,160,1,,,,,,
10391,No,2019,2,1,3,INDIA,IN,INDIA:  MAHARASHTRA:  PALGHAR,19.9,72.8,60,1,,,,,,
10392,No,2019,2,1,6,MEXICO,MX,MEXICO:  CHIAPAS; GUATEMALA:  SAN MARCOS,14.763,-92.298,150,,,4,,,,
10394,No,2019,2,5,5,AZERBAIJAN,AZ,AZERBAIJAN:  SHEMAKHA (SEMACHA),40.892,48.602,40,,,3,,,3000,
10393,No,2019,2,22,7,ECUADOR,EC,"ECUADOR: AZUAY, MANABI, MORONA SANT.; PERU",-2.199,-77.023,160,1,,9,,5,75,
10395,No,2019,2,25,5,CHINA,CN,CHINA:  SICHUAN PROVINCE: RONGXIAN,29.498,104.632,30,2,,12,2,9,10911,
10398,No,2019,2,27,5,INDONESIA,ID,INDONESIA: SUMATRA: SOLOK,-1.301,101.601,60,,,48,,,343,
10396,No,2019,3,1,7,PERU,PE,PERU:  AREQUIPA,-14.684,-70.127,160,1,,1,,,,
10399,No,2019,3,17,5,INDONESIA,ID,INDONESIA:  LOMBOK ISLAND,-8.418,116.52,60,6,,,,843,3613,
10400,No,2019,3,21,5,TANZANIA,TZ,"TANZANIA:  SONGWE, MBEYA",-7.878,32.085,10,1,,,,4,,
10402,No,2019,4,12,7,INDONESIA,ID,INDONESIA:  SULAWESI ISLAND: LUWUK,-1.852,122.553,60,1,,,,,,
10407,No,2019,4,18,6,TAIWAN,TW,TAIWAN:  HUALIEN,23.989,121.693,30,1,,16,,,,
10406,No,2019,4,22,6,PHILIPPINES,PH,PHILIPPINES:  PAMPANGA PROVINCE,14.924,120.497,170,18,3,183,50,1046,3329,
